{"system":"nyc_sched","source_notes":"來源:Entur 全國 GTFS 聚合檔 shapes.txt(NLOD 授權)與 stops.txt;每路線取最常用 shape_id 代表線型,Douglas-Peucker 簡化(eps=0.03km);站點依投影弧長(km)排序","lines":[{"id":"F","name":"Queens Blvd Express/6 Av Local","color":"#EB6800","shape":[[40.712646,-73.783817],[40.711762,-73.789961],[40.709836,-73.795329],[40.704413,-73.814414],[40.704306,-73.816571],[40.705321,-73.818196],[40.710588,-73.821887],[40.714441,-73.831008],[40.717531,-73.835753],[40.723371,-73.848187],[40.726443,-73.852538],[40.731187,-73.865257],[40.733106,-73.869229],[40.735106,-73.875429],[40.736327,-73.876834],[40.740326,-73.87906],[40.742256,-73.881662],[40.752988,-73.906278],[40.753044,-73.911187],[40.753847,-73.91716],[40.752132,-73.925796],[40.751924,-73.932452],[40.751258,-73.934331],[40.749083,-73.936963],[40.747385,-73.941678],[40.747287,-73.943063],[40.749664,-73.954279],[40.754839,-73.96263],[40.760789,-73.976697],[40.76136,-73.978435],[40.761138,-73.979448],[40.731216,-74.001312],[40.728702,-74.002535],[40.728032,-74.002126],[40.725792,-73.997568],[40.722723,-73.987704],[40.721741,-73.986729],[40.714055,-73.99019],[40.710288,-73.989518],[40.706752,-73.987234],[40.704836,-73.986604],[40.691336,-73.987423],[40.679303,-73.995775],[40.676167,-73.997343],[40.675025,-73.997367],[40.673631,-73.996031],[40.67186,-73.993056],[40.669548,-73.988253],[40.668766,-73.985354],[40.665013,-73.977729],[40.664108,-73.976938],[40.658475,-73.98044],[40.655517,-73.976664],[40.65032,-73.975814],[40.648766,-73.976613],[40.647205,-73.979513],[40.645822,-73.979985],[40.60425,-73.97223],[40.589287,-73.97428],[40.576802,-73.974556],[40.575771,-73.978088],[40.576235,-73.980762],[40.577422,-73.981233]],"shapeLen":43.3309,"stations":[{"name":"Jamaica-179 St","lat":40.712646,"lon":-73.783817,"d":0},{"name":"169 St","lat":40.71047,"lon":-73.793604,"d":0.8661},{"name":"Parsons Blvd","lat":40.707564,"lon":-73.803326,"d":1.7475},{"name":"Sutphin Blvd","lat":40.70546,"lon":-73.810708,"d":2.4123},{"name":"Briarwood","lat":40.709179,"lon":-73.820574,"d":3.5783},{"name":"Kew Gardens-Union Tpke","lat":40.714441,"lon":-73.831008,"d":4.6486},{"name":"75 Av","lat":40.718331,"lon":-73.837324,"d":5.3353},{"name":"Forest Hills-71 Av","lat":40.721691,"lon":-73.844521,"d":6.0476},{"name":"67 Av","lat":40.726523,"lon":-73.852719,"d":6.9274},{"name":"63 Dr-Rego Park","lat":40.729846,"lon":-73.861604,"d":7.7623},{"name":"Woodhaven Blvd","lat":40.733106,"lon":-73.869229,"d":8.5012},{"name":"Grand Av-Newtown","lat":40.737015,"lon":-73.877223,"d":9.3324},{"name":"Elmhurst Av","lat":40.742454,"lon":-73.882017,"d":10.0754},{"name":"Jackson Hts-Roosevelt Av","lat":40.746644,"lon":-73.891338,"d":10.9884},{"name":"65 St","lat":40.749669,"lon":-73.898453,"d":11.6756},{"name":"Northern Blvd","lat":40.752885,"lon":-73.906006,"d":12.4054},{"name":"46 St","lat":40.756312,"lon":-73.913333,"d":13.086},{"name":"Steinway St","lat":40.756879,"lon":-73.92074,"d":13.5618},{"name":"36 St","lat":40.752039,"lon":-73.928781,"d":14.3592},{"name":"Queens Plaza","lat":40.748973,"lon":-73.937243,"d":15.1981},{"name":"21 St-Queensbridge","lat":40.754203,"lon":-73.942836,"d":15.374},{"name":"Court Sq-23 St","lat":40.747846,"lon":-73.946,"d":15.9835},{"name":"Roosevelt Island","lat":40.759145,"lon":-73.95326,"d":17.3107},{"name":"Lexington Av/53 St","lat":40.757552,"lon":-73.969055,"d":18.238},{"name":"Lexington Av/63 St","lat":40.764629,"lon":-73.966113,"d":18.4053},{"name":"5 Av/53 St","lat":40.760167,"lon":-73.975224,"d":18.8334},{"name":"57 St","lat":40.763972,"lon":-73.97745,"d":19.135},{"name":"47-50 Sts-Rockefeller Ctr","lat":40.758663,"lon":-73.981329,"d":19.5414},{"name":"42 St-Bryant Pk","lat":40.754222,"lon":-73.984569,"d":20.1056},{"name":"34 St-Herald Sq","lat":40.749719,"lon":-73.987823,"d":20.6764},{"name":"23 St","lat":40.742878,"lon":-73.992821,"d":21.5458},{"name":"14 St","lat":40.738228,"lon":-73.996209,"d":22.1364},{"name":"W 4 St-Wash Sq","lat":40.732338,"lon":-74.000495,"d":22.8843},{"name":"Broadway-Lafayette St","lat":40.725297,"lon":-73.996204,"d":23.9919},{"name":"2 Av","lat":40.723402,"lon":-73.989938,"d":24.5604},{"name":"Delancey St-Essex St","lat":40.718611,"lon":-73.988114,"d":25.2669},{"name":"East Broadway","lat":40.713715,"lon":-73.990173,"d":25.8406},{"name":"York St","lat":40.701397,"lon":-73.986751,"d":27.2655},{"name":"Jay St-MetroTech","lat":40.692338,"lon":-73.987342,"d":28.274},{"name":"Bergen St","lat":40.686145,"lon":-73.990862,"d":29.0315},{"name":"Carroll St","lat":40.680303,"lon":-73.995048,"d":29.7707},{"name":"Smith-9 Sts","lat":40.67358,"lon":-73.995959,"d":30.5975},{"name":"4 Av-9 St","lat":40.670272,"lon":-73.989779,"d":31.2362},{"name":"7 Av","lat":40.666271,"lon":-73.980305,"d":32.1557},{"name":"15 St-Prospect Park","lat":40.660365,"lon":-73.979493,"d":33.0032},{"name":"Fort Hamilton Pkwy","lat":40.650782,"lon":-73.975776,"d":34.217},{"name":"Church Av","lat":40.644041,"lon":-73.979678,"d":35.1116},{"name":"Ditmas Av","lat":40.636119,"lon":-73.978172,"d":36.0016},{"name":"18 Av","lat":40.629755,"lon":-73.976971,"d":36.7164},{"name":"Avenue I","lat":40.625322,"lon":-73.976127,"d":37.2145},{"name":"Bay Pkwy","lat":40.620769,"lon":-73.975264,"d":37.726},{"name":"Avenue N","lat":40.61514,"lon":-73.974197,"d":38.3583},{"name":"Avenue P","lat":40.608944,"lon":-73.973022,"d":39.0544},{"name":"Kings Hwy","lat":40.603217,"lon":-73.972361,"d":39.6959},{"name":"Avenue U","lat":40.596063,"lon":-73.973357,"d":40.4959},{"name":"Avenue X","lat":40.58962,"lon":-73.97425,"d":41.2163},{"name":"Neptune Av","lat":40.581011,"lon":-73.974574,"d":42.1739},{"name":"W 8 St-NY Aquarium","lat":40.576127,"lon":-73.975939,"d":42.7778},{"name":"Coney Island-Stillwell Av","lat":40.577422,"lon":-73.981233,"d":43.3309}]},{"id":"FX","name":"Brooklyn F Express","color":"#EB6800","shape":[[40.577422,-73.981233],[40.576235,-73.980762],[40.575771,-73.978088],[40.576802,-73.974556],[40.589287,-73.97428],[40.60425,-73.97223],[40.645822,-73.979985],[40.647205,-73.979513],[40.648766,-73.976613],[40.650106,-73.975851],[40.655699,-73.97651],[40.65937,-73.97601],[40.663049,-73.976299],[40.664936,-73.977568],[40.668766,-73.985354],[40.669548,-73.988253],[40.671773,-73.992891],[40.673514,-73.99587],[40.675025,-73.997367],[40.676167,-73.997343],[40.679303,-73.995775],[40.691336,-73.987423],[40.704836,-73.986604],[40.706752,-73.987234],[40.710288,-73.989518],[40.714055,-73.99019],[40.721741,-73.986729],[40.722723,-73.987704],[40.725792,-73.997568],[40.728032,-74.002126],[40.728702,-74.002535],[40.731216,-74.001312],[40.761138,-73.979448],[40.76136,-73.978435],[40.760789,-73.976697],[40.754839,-73.96263],[40.749664,-73.954279],[40.747287,-73.943063],[40.747385,-73.941678],[40.749083,-73.936963],[40.751258,-73.934331],[40.751924,-73.932452],[40.752132,-73.925796],[40.753847,-73.91716],[40.753044,-73.911187],[40.752988,-73.906278],[40.742256,-73.881662],[40.740326,-73.87906],[40.736327,-73.876834],[40.735106,-73.875429],[40.733106,-73.869229],[40.731187,-73.865257],[40.726443,-73.852538],[40.723371,-73.848187],[40.717531,-73.835753],[40.714441,-73.831008],[40.710588,-73.821887],[40.705321,-73.818196],[40.704306,-73.816571],[40.704413,-73.814414],[40.709836,-73.795329],[40.711762,-73.789961],[40.712646,-73.783817]],"shapeLen":43.1502,"stations":[{"name":"Coney Island-Stillwell Av","lat":40.577422,"lon":-73.981233,"d":0},{"name":"W 8 St-NY Aquarium","lat":40.576127,"lon":-73.975939,"d":0.5531},{"name":"Neptune Av","lat":40.581011,"lon":-73.974574,"d":1.157},{"name":"Avenue X","lat":40.58962,"lon":-73.97425,"d":2.1146},{"name":"Avenue U","lat":40.596063,"lon":-73.973357,"d":2.835},{"name":"Kings Hwy","lat":40.603217,"lon":-73.972361,"d":3.6349},{"name":"Avenue P","lat":40.608944,"lon":-73.973022,"d":4.2765},{"name":"Avenue N","lat":40.61514,"lon":-73.974197,"d":4.9726},{"name":"Bay Pkwy","lat":40.620769,"lon":-73.975264,"d":5.6049},{"name":"Avenue I","lat":40.625322,"lon":-73.976127,"d":6.1164},{"name":"18 Av","lat":40.629755,"lon":-73.976971,"d":6.6145},{"name":"Ditmas Av","lat":40.636119,"lon":-73.978172,"d":7.3293},{"name":"Church Av","lat":40.644041,"lon":-73.979678,"d":8.2193},{"name":"7 Av","lat":40.666271,"lon":-73.980305,"d":10.9947},{"name":"Jay St-MetroTech","lat":40.692338,"lon":-73.987342,"d":14.8762},{"name":"York St","lat":40.701397,"lon":-73.986751,"d":15.8847},{"name":"East Broadway","lat":40.713715,"lon":-73.990173,"d":17.3097},{"name":"Delancey St-Essex St","lat":40.718611,"lon":-73.988114,"d":17.8833},{"name":"2 Av","lat":40.723402,"lon":-73.989938,"d":18.5899},{"name":"Broadway-Lafayette St","lat":40.725297,"lon":-73.996204,"d":19.1584},{"name":"W 4 St-Wash Sq","lat":40.732338,"lon":-74.000495,"d":20.2659},{"name":"14 St","lat":40.738228,"lon":-73.996209,"d":21.0138},{"name":"23 St","lat":40.742878,"lon":-73.992821,"d":21.6044},{"name":"34 St-Herald Sq","lat":40.749719,"lon":-73.987823,"d":22.4739},{"name":"42 St-Bryant Pk","lat":40.754222,"lon":-73.984569,"d":23.0447},{"name":"47-50 Sts-Rockefeller Ctr","lat":40.758663,"lon":-73.981329,"d":23.6089},{"name":"5 Av/53 St","lat":40.760167,"lon":-73.975224,"d":24.3168},{"name":"Lexington Av/53 St","lat":40.757552,"lon":-73.969055,"d":24.9122},{"name":"Court Sq-23 St","lat":40.747846,"lon":-73.946,"d":27.1667},{"name":"Queens Plaza","lat":40.748973,"lon":-73.937243,"d":27.9521},{"name":"Jackson Hts-Roosevelt Av","lat":40.746644,"lon":-73.891338,"d":32.1619},{"name":"Forest Hills-71 Av","lat":40.721691,"lon":-73.844521,"d":37.1026},{"name":"75 Av","lat":40.718331,"lon":-73.837324,"d":37.815},{"name":"Kew Gardens-Union Tpke","lat":40.714441,"lon":-73.831008,"d":38.5016},{"name":"Briarwood","lat":40.709179,"lon":-73.820574,"d":39.572},{"name":"Sutphin Blvd","lat":40.70546,"lon":-73.810708,"d":40.7379},{"name":"Parsons Blvd","lat":40.707564,"lon":-73.803326,"d":41.4027},{"name":"169 St","lat":40.71047,"lon":-73.793604,"d":42.2842},{"name":"Jamaica-179 St","lat":40.712646,"lon":-73.783817,"d":43.1502}]},{"id":"D","name":"6 Avenue Express","color":"#EB6800","shape":[[40.874811,-73.878855],[40.876881,-73.883553],[40.876938,-73.884662],[40.876425,-73.885491],[40.871801,-73.888279],[40.869312,-73.891671],[40.862924,-73.896779],[40.85571,-73.900992],[40.848925,-73.906419],[40.84488,-73.911176],[40.838992,-73.913588],[40.832715,-73.919334],[40.82765,-73.922248],[40.827504,-73.924298],[40.829961,-73.930743],[40.830108,-73.939156],[40.829358,-73.940953],[40.823862,-73.94486],[40.81493,-73.949046],[40.810332,-73.952898],[40.807392,-73.95319],[40.764986,-73.984138],[40.763931,-73.983999],[40.762121,-73.97995],[40.761008,-73.97963],[40.729154,-74.002446],[40.72797,-74.002019],[40.723635,-73.991812],[40.721912,-73.991909],[40.716296,-73.994767],[40.715184,-73.994847],[40.697839,-73.985242],[40.689232,-73.981117],[40.687686,-73.97838],[40.685237,-73.97798],[40.676156,-73.983895],[40.66593,-73.992403],[40.653125,-74.005395],[40.645029,-73.992803],[40.643166,-73.994248],[40.631838,-73.995377],[40.609348,-74.001796],[40.606961,-74.001599],[40.596689,-73.985328],[40.587172,-73.983436],[40.585862,-73.981837],[40.584267,-73.980899],[40.580511,-73.98146],[40.577422,-73.981233]],"shapeLen":41.1244,"stations":[{"name":"Norwood-205 St","lat":40.874811,"lon":-73.878855,"d":0},{"name":"Bedford Park Blvd","lat":40.873244,"lon":-73.887138,"d":1.02},{"name":"Kingsbridge Rd","lat":40.866978,"lon":-73.893509,"d":1.9053},{"name":"Fordham Rd","lat":40.861296,"lon":-73.897749,"d":2.6318},{"name":"182-183 Sts","lat":40.856093,"lon":-73.900741,"d":3.2627},{"name":"Tremont Av","lat":40.85041,"lon":-73.905227,"d":3.9988},{"name":"174-175 Sts","lat":40.8459,"lon":-73.910136,"d":4.6511},{"name":"170 St","lat":40.839306,"lon":-73.9134,"d":5.4414},{"name":"167 St","lat":40.833771,"lon":-73.91844,"d":6.1891},{"name":"161 St-Yankee Stadium","lat":40.827905,"lon":-73.925651,"d":7.2377},{"name":"155 St","lat":40.830135,"lon":-73.938209,"d":8.3516},{"name":"145 St","lat":40.824783,"lon":-73.944216,"d":9.1819},{"name":"125 St","lat":40.811109,"lon":-73.952343,"d":10.859},{"name":"59 St-Columbus Circle","lat":40.768296,"lon":-73.981736,"d":16.2522},{"name":"7 Av","lat":40.762862,"lon":-73.981637,"d":17.0218},{"name":"47-50 Sts-Rockefeller Ctr","lat":40.758663,"lon":-73.981329,"d":17.6101},{"name":"42 St-Bryant Pk","lat":40.754222,"lon":-73.984569,"d":18.1743},{"name":"34 St-Herald Sq","lat":40.749719,"lon":-73.987823,"d":18.7451},{"name":"W 4 St-Wash Sq","lat":40.732338,"lon":-74.000495,"d":20.953},{"name":"Broadway-Lafayette St","lat":40.725297,"lon":-73.996204,"d":22.0518},{"name":"Grand St","lat":40.718267,"lon":-73.993753,"d":23.0909},{"name":"DeKalb Av","lat":40.690635,"lon":-73.981824,"d":26.393},{"name":"Atlantic Av-Barclays Ctr","lat":40.683666,"lon":-73.97881,"d":27.3097},{"name":"Union St","lat":40.677316,"lon":-73.98311,"d":28.1034},{"name":"4 Av-9 St","lat":40.670847,"lon":-73.988302,"d":28.9459},{"name":"Prospect Av","lat":40.665414,"lon":-73.992872,"d":29.6625},{"name":"25 St","lat":40.660397,"lon":-73.998091,"d":30.3731},{"name":"36 St","lat":40.655144,"lon":-74.003549,"d":31.1168},{"name":"9 Av","lat":40.646292,"lon":-73.994324,"d":32.5934},{"name":"Fort Hamilton Pkwy","lat":40.640914,"lon":-73.994304,"d":33.2726},{"name":"50 St","lat":40.63626,"lon":-73.994791,"d":33.7917},{"name":"55 St","lat":40.631435,"lon":-73.995476,"d":34.3313},{"name":"62 St","lat":40.626472,"lon":-73.996895,"d":34.896},{"name":"71 St","lat":40.619589,"lon":-73.998864,"d":35.6792},{"name":"79 St","lat":40.613501,"lon":-74.00061,"d":36.372},{"name":"18 Av","lat":40.607954,"lon":-74.001736,"d":36.9995},{"name":"20 Av","lat":40.604556,"lon":-73.998168,"d":37.5041},{"name":"Bay Pkwy","lat":40.601875,"lon":-73.993728,"d":37.983},{"name":"25 Av","lat":40.597704,"lon":-73.986829,"d":38.7273},{"name":"Bay 50 St","lat":40.588841,"lon":-73.983765,"d":39.7795},{"name":"Coney Island-Stillwell Av","lat":40.577422,"lon":-73.981233,"d":41.1244}]},{"id":"2","name":"7 Avenue Express","color":"#D82233","shape":[[40.632836,-73.947642],[40.664053,-73.95098],[40.669592,-73.950684],[40.670208,-73.955823],[40.673208,-73.969259],[40.688856,-73.981001],[40.692361,-73.989447],[40.697046,-73.991667],[40.700828,-74.00471],[40.70497,-74.009892],[40.706141,-74.00967],[40.710376,-74.005763],[40.712431,-74.007548],[40.713961,-74.010353],[40.718334,-74.007089],[40.729414,-74.00516],[40.736761,-74.000973],[40.75788,-73.985638],[40.765461,-73.981977],[40.777496,-73.982091],[40.782622,-73.980748],[40.798781,-73.96872],[40.799215,-73.96696],[40.796872,-73.960984],[40.79856,-73.952322],[40.818371,-73.937754],[40.819161,-73.936378],[40.819165,-73.929801],[40.815702,-73.916277],[40.816201,-73.91403],[40.816174,-73.908375],[40.824554,-73.892182],[40.830667,-73.891704],[40.837463,-73.887544],[40.839252,-73.884441],[40.840057,-73.880498],[40.841245,-73.878966],[40.840784,-73.876841],[40.84121,-73.87443],[40.844101,-73.870857],[40.85007,-73.867846],[40.876693,-73.866928],[40.897451,-73.855124],[40.903125,-73.85062]],"shapeLen":40.7649,"stations":[{"name":"Flatbush Av-Brooklyn College","lat":40.632836,"lon":-73.947642,"d":0},{"name":"Newkirk Av-Little Haiti","lat":40.639967,"lon":-73.948411,"d":0.7956},{"name":"Beverly Rd","lat":40.645098,"lon":-73.948959,"d":1.368},{"name":"Church Av","lat":40.650843,"lon":-73.949575,"d":2.0089},{"name":"Winthrop St","lat":40.656652,"lon":-73.9502,"d":2.657},{"name":"Saratoga Av","lat":40.661453,"lon":-73.916327,"d":2.9579},{"name":"Rockaway Av","lat":40.662549,"lon":-73.908946,"d":3.029},{"name":"Junius St","lat":40.663515,"lon":-73.902447,"d":3.0917},{"name":"Pennsylvania Av","lat":40.664635,"lon":-73.894895,"d":3.1643},{"name":"Sterling St","lat":40.662742,"lon":-73.95085,"d":3.3364},{"name":"Sutter Av-Rutland Rd","lat":40.664717,"lon":-73.92261,"d":3.6533},{"name":"Van Siclen Av","lat":40.665449,"lon":-73.889395,"d":3.8481},{"name":"President St-Medgar Evers College","lat":40.667883,"lon":-73.950683,"d":3.9091},{"name":"New Lots Av","lat":40.666235,"lon":-73.884079,"d":3.9536},{"name":"Crown Hts-Utica Av","lat":40.668897,"lon":-73.932942,"d":4.0824},{"name":"Kingston Av","lat":40.669399,"lon":-73.942161,"d":4.099},{"name":"Nostrand Av","lat":40.669847,"lon":-73.950466,"d":4.099},{"name":"Franklin Av-Medgar Evers College","lat":40.670682,"lon":-73.958131,"d":4.7394},{"name":"Eastern Pkwy-Brooklyn Museum","lat":40.671987,"lon":-73.964375,"d":5.2855},{"name":"Grand Army Plaza","lat":40.675235,"lon":-73.971046,"d":5.9894},{"name":"Bergen St","lat":40.680829,"lon":-73.975098,"d":6.6991},{"name":"Atlantic Av-Barclays Ctr","lat":40.684359,"lon":-73.977666,"d":7.1473},{"name":"Nevins St","lat":40.688246,"lon":-73.980492,"d":7.6408},{"name":"Hoyt St","lat":40.690545,"lon":-73.985065,"d":8.1117},{"name":"Borough Hall","lat":40.693219,"lon":-73.989998,"d":8.6383},{"name":"Clark St","lat":40.697466,"lon":-73.993086,"d":9.2147},{"name":"Wall St","lat":40.706821,"lon":-74.0091,"d":11.1194},{"name":"Fulton St","lat":40.709416,"lon":-74.006571,"d":11.478},{"name":"Park Place","lat":40.713051,"lon":-74.008811,"d":12.0048},{"name":"Chambers St","lat":40.715478,"lon":-74.009266,"d":12.3613},{"name":"Franklin St","lat":40.719318,"lon":-74.006886,"d":12.8388},{"name":"Canal St","lat":40.722854,"lon":-74.006277,"d":13.2353},{"name":"Houston St","lat":40.728251,"lon":-74.005367,"d":13.8403},{"name":"Christopher St-Stonewall","lat":40.733422,"lon":-74.002906,"d":14.4552},{"name":"14 St","lat":40.737826,"lon":-74.000201,"d":14.9957},{"name":"18 St","lat":40.74104,"lon":-73.997871,"d":15.4035},{"name":"23 St","lat":40.744081,"lon":-73.995657,"d":15.7897},{"name":"28 St","lat":40.747215,"lon":-73.993365,"d":16.1881},{"name":"34 St-Penn Station","lat":40.750373,"lon":-73.991057,"d":16.5894},{"name":"Times Sq-42 St","lat":40.75529,"lon":-73.987495,"d":17.2131},{"name":"50 St","lat":40.761728,"lon":-73.983849,"d":17.9944},{"name":"59 St-Columbus Circle","lat":40.768247,"lon":-73.981929,"d":18.7482},{"name":"66 St-Lincoln Center","lat":40.77344,"lon":-73.982209,"d":19.3258},{"name":"72 St","lat":40.778453,"lon":-73.98197,"d":19.883},{"name":"79 St","lat":40.783934,"lon":-73.979917,"d":20.5192},{"name":"86 St","lat":40.788644,"lon":-73.976218,"d":21.1284},{"name":"96 St","lat":40.793919,"lon":-73.972323,"d":21.8004},{"name":"110 St-Malcolm X Plaza","lat":40.799075,"lon":-73.951822,"d":23.966},{"name":"116 St","lat":40.802098,"lon":-73.949625,"d":24.3496},{"name":"125 St","lat":40.807754,"lon":-73.945495,"d":25.0682},{"name":"135 St","lat":40.814229,"lon":-73.94077,"d":25.8907},{"name":"149 St-Grand Concourse","lat":40.81841,"lon":-73.926718,"d":27.388},{"name":"3 Av-149 St","lat":40.816109,"lon":-73.917757,"d":28.1843},{"name":"Jackson Av","lat":40.81649,"lon":-73.907807,"d":29.0491},{"name":"Prospect Av","lat":40.819585,"lon":-73.90177,"d":29.6627},{"name":"Intervale Av","lat":40.822181,"lon":-73.896736,"d":30.1753},{"name":"Simpson St","lat":40.824073,"lon":-73.893064,"d":30.5491},{"name":"Freeman St","lat":40.829993,"lon":-73.891865,"d":31.2459},{"name":"174 St","lat":40.837288,"lon":-73.887734,"d":32.1299},{"name":"West Farms Sq-E Tremont Av","lat":40.840295,"lon":-73.880049,"d":32.8713},{"name":"E 180 St","lat":40.841894,"lon":-73.873488,"d":33.5145},{"name":"Bronx Park East","lat":40.848828,"lon":-73.868457,"d":34.408},{"name":"Pelham Pkwy","lat":40.857192,"lon":-73.867615,"d":35.3475},{"name":"Allerton Av","lat":40.865462,"lon":-73.867352,"d":36.2673},{"name":"Burke Av","lat":40.871356,"lon":-73.867164,"d":36.9229},{"name":"Gun Hill Rd","lat":40.87785,"lon":-73.866256,"d":37.6572},{"name":"219 St","lat":40.883895,"lon":-73.862633,"d":38.395},{"name":"225 St","lat":40.888022,"lon":-73.860341,"d":38.8927},{"name":"233 St","lat":40.893193,"lon":-73.857473,"d":39.5161},{"name":"Nereid Av","lat":40.898379,"lon":-73.854376,"d":40.1499},{"name":"Wakefield-241 St","lat":40.903125,"lon":-73.85062,"d":40.7649}]},{"id":"B","name":"6 Avenue Express","color":"#EB6800","shape":[[40.873244,-73.887138],[40.871475,-73.888619],[40.869195,-73.891781],[40.863048,-73.896681],[40.855636,-73.901043],[40.848925,-73.906419],[40.845006,-73.91108],[40.838992,-73.913588],[40.832715,-73.919334],[40.82765,-73.922248],[40.827504,-73.924298],[40.829975,-73.930905],[40.830108,-73.939156],[40.829263,-73.941032],[40.823862,-73.94486],[40.81493,-73.949046],[40.810332,-73.952898],[40.807392,-73.95319],[40.764986,-73.984138],[40.763931,-73.983999],[40.762121,-73.97995],[40.761008,-73.97963],[40.729034,-74.002486],[40.72797,-74.002019],[40.723635,-73.991812],[40.721912,-73.991909],[40.716191,-73.994812],[40.714991,-73.994765],[40.697839,-73.985242],[40.689232,-73.981117],[40.687399,-73.977495],[40.682608,-73.976398],[40.662823,-73.96245],[40.655851,-73.961393],[40.644282,-73.96453],[40.58861,-73.954052],[40.585198,-73.95467],[40.57818,-73.959681],[40.577621,-73.961376]],"shapeLen":38.716,"stations":[{"name":"Bedford Park Blvd","lat":40.873244,"lon":-73.887138,"d":0},{"name":"Kingsbridge Rd","lat":40.866978,"lon":-73.893509,"d":0.8863},{"name":"Fordham Rd","lat":40.861296,"lon":-73.897749,"d":1.6128},{"name":"182-183 Sts","lat":40.856093,"lon":-73.900741,"d":2.2437},{"name":"Tremont Av","lat":40.85041,"lon":-73.905227,"d":2.9798},{"name":"174-175 Sts","lat":40.8459,"lon":-73.910136,"d":3.6321},{"name":"170 St","lat":40.839306,"lon":-73.9134,"d":4.4223},{"name":"167 St","lat":40.833771,"lon":-73.91844,"d":5.17},{"name":"161 St-Yankee Stadium","lat":40.827905,"lon":-73.925651,"d":6.2187},{"name":"155 St","lat":40.830135,"lon":-73.938209,"d":7.3317},{"name":"145 St","lat":40.824783,"lon":-73.944216,"d":8.1606},{"name":"135 St","lat":40.817894,"lon":-73.947649,"d":8.9804},{"name":"125 St","lat":40.811109,"lon":-73.952343,"d":9.8377},{"name":"116 St","lat":40.805085,"lon":-73.954882,"d":10.5569},{"name":"Cathedral Pkwy (110 St)","lat":40.800603,"lon":-73.958161,"d":11.1266},{"name":"103 St","lat":40.796092,"lon":-73.961454,"d":11.6997},{"name":"96 St","lat":40.791642,"lon":-73.964696,"d":12.2648},{"name":"86 St","lat":40.785868,"lon":-73.968916,"d":12.9986},{"name":"81 St-Museum of Natural History","lat":40.781433,"lon":-73.972143,"d":13.5616},{"name":"72 St","lat":40.775594,"lon":-73.97641,"d":14.3037},{"name":"59 St-Columbus Circle","lat":40.768296,"lon":-73.981736,"d":15.2309},{"name":"7 Av","lat":40.762862,"lon":-73.981637,"d":16.0005},{"name":"47-50 Sts-Rockefeller Ctr","lat":40.758663,"lon":-73.981329,"d":16.5888},{"name":"42 St-Bryant Pk","lat":40.754222,"lon":-73.984569,"d":17.153},{"name":"34 St-Herald Sq","lat":40.749719,"lon":-73.987823,"d":17.7238},{"name":"W 4 St-Wash Sq","lat":40.732338,"lon":-74.000495,"d":19.9317},{"name":"Broadway-Lafayette St","lat":40.725297,"lon":-73.996204,"d":21.0321},{"name":"Grand St","lat":40.718267,"lon":-73.993753,"d":22.0711},{"name":"DeKalb Av","lat":40.690635,"lon":-73.981824,"d":25.3727},{"name":"Atlantic Av-Barclays Ctr","lat":40.68446,"lon":-73.97689,"d":26.2375},{"name":"Prospect Park","lat":40.661614,"lon":-73.962246,"d":29.0778},{"name":"Church Av","lat":40.650527,"lon":-73.962982,"d":30.3295},{"name":"Newkirk Plaza","lat":40.635082,"lon":-73.962793,"d":32.0694},{"name":"Kings Hwy","lat":40.60867,"lon":-73.957734,"d":35.0372},{"name":"Sheepshead Bay","lat":40.586896,"lon":-73.954155,"d":37.4793},{"name":"Brighton Beach","lat":40.577621,"lon":-73.961376,"d":38.716}]},{"id":"5","name":"Lexington Avenue Express","color":"#009952","shape":[[40.8883,-73.830834],[40.857915,-73.856268],[40.847777,-73.868618],[40.843567,-73.871389],[40.84121,-73.87443],[40.840784,-73.876841],[40.841245,-73.878966],[40.840057,-73.880498],[40.839252,-73.884441],[40.837288,-73.887734],[40.830667,-73.891704],[40.824494,-73.892265],[40.815963,-73.909111],[40.816213,-73.913796],[40.815702,-73.916277],[40.818618,-73.928318],[40.817547,-73.927758],[40.813931,-73.929244],[40.808149,-73.934662],[40.7523,-73.975427],[40.751298,-73.97826],[40.735409,-73.989845],[40.730358,-73.990727],[40.715772,-74.002905],[40.714102,-74.003263],[40.713065,-74.004131],[40.712297,-74.005023],[40.711258,-74.008725],[40.704123,-74.014428],[40.703031,-74.014645],[40.702119,-74.014111],[40.695813,-74.005764],[40.693877,-73.999213],[40.692242,-73.989328],[40.688902,-73.981065],[40.673208,-73.969259],[40.670208,-73.955823],[40.669592,-73.950684],[40.664053,-73.95098],[40.632836,-73.947642]],"shapeLen":38.6633,"stations":[{"name":"Eastchester-Dyre Av","lat":40.8883,"lon":-73.830834,"d":0},{"name":"Nereid Av","lat":40.898379,"lon":-73.854376,"d":0.1112},{"name":"233 St","lat":40.893193,"lon":-73.857473,"d":0.7377},{"name":"Baychester Av","lat":40.878663,"lon":-73.838591,"d":1.2542},{"name":"225 St","lat":40.888022,"lon":-73.860341,"d":1.3525},{"name":"219 St","lat":40.883895,"lon":-73.862633,"d":1.8433},{"name":"Gun Hill Rd","lat":40.869526,"lon":-73.846384,"d":2.4631},{"name":"Burke Av","lat":40.871356,"lon":-73.867164,"d":3.2253},{"name":"Allerton Av","lat":40.865462,"lon":-73.867352,"d":3.7877},{"name":"Pelham Pkwy","lat":40.858985,"lon":-73.855359,"d":3.8572},{"name":"Morris Park","lat":40.854364,"lon":-73.860495,"d":4.5299},{"name":"Bronx Park East","lat":40.848828,"lon":-73.868457,"d":5.4363},{"name":"E 180 St","lat":40.841894,"lon":-73.873488,"d":6.3109},{"name":"West Farms Sq-E Tremont Av","lat":40.840295,"lon":-73.880049,"d":6.9541},{"name":"174 St","lat":40.837288,"lon":-73.887734,"d":7.6958},{"name":"Freeman St","lat":40.829993,"lon":-73.891865,"d":8.5799},{"name":"Simpson St","lat":40.824073,"lon":-73.893064,"d":9.2741},{"name":"Intervale Av","lat":40.822181,"lon":-73.896736,"d":9.6479},{"name":"Prospect Av","lat":40.819585,"lon":-73.90177,"d":10.1605},{"name":"Jackson Av","lat":40.81649,"lon":-73.907807,"d":10.7741},{"name":"3 Av-149 St","lat":40.816109,"lon":-73.917757,"d":11.6419},{"name":"149 St-Grand Concourse","lat":40.81841,"lon":-73.926718,"d":12.4381},{"name":"138 St-Grand Concourse","lat":40.813224,"lon":-73.929849,"d":13.2161},{"name":"125 St","lat":40.804138,"lon":-73.937594,"d":14.4205},{"name":"86 St","lat":40.779492,"lon":-73.955589,"d":17.5518},{"name":"59 St","lat":40.762526,"lon":-73.967967,"d":19.7072},{"name":"Grand Central-42 St","lat":40.751776,"lon":-73.976848,"d":21.1394},{"name":"14 St-Union Sq","lat":40.734673,"lon":-73.989951,"d":23.3704},{"name":"Brooklyn Bridge-City Hall","lat":40.713065,"lon":-74.004131,"d":26.0987},{"name":"Fulton St","lat":40.710368,"lon":-74.009509,"d":26.664},{"name":"Wall St","lat":40.707557,"lon":-74.011862,"d":27.0341},{"name":"Bowling Green","lat":40.704817,"lon":-74.014065,"d":27.3909},{"name":"Borough Hall","lat":40.692404,"lon":-73.990151,"d":30.0741},{"name":"Nevins St","lat":40.688246,"lon":-73.980492,"d":31.0225},{"name":"Atlantic Av-Barclays Ctr","lat":40.684359,"lon":-73.977666,"d":31.516},{"name":"Franklin Av-Medgar Evers College","lat":40.670682,"lon":-73.958131,"d":33.9239},{"name":"Kingston Av","lat":40.669399,"lon":-73.942161,"d":34.5643},{"name":"Nostrand Av","lat":40.669847,"lon":-73.950466,"d":34.5643},{"name":"Crown Hts-Utica Av","lat":40.668897,"lon":-73.932942,"d":34.5809},{"name":"New Lots Av","lat":40.666235,"lon":-73.884079,"d":34.7098},{"name":"President St-Medgar Evers College","lat":40.667883,"lon":-73.950683,"d":34.7542},{"name":"Van Siclen Av","lat":40.665449,"lon":-73.889395,"d":34.8153},{"name":"Sutter Av-Rutland Rd","lat":40.664717,"lon":-73.92261,"d":35.01},{"name":"Sterling St","lat":40.662742,"lon":-73.95085,"d":35.3269},{"name":"Pennsylvania Av","lat":40.664635,"lon":-73.894895,"d":35.4987},{"name":"Junius St","lat":40.663515,"lon":-73.902447,"d":35.5713},{"name":"Rockaway Av","lat":40.662549,"lon":-73.908946,"d":35.634},{"name":"Saratoga Av","lat":40.661453,"lon":-73.916327,"d":35.7052},{"name":"Winthrop St","lat":40.656652,"lon":-73.9502,"d":36.0063},{"name":"Church Av","lat":40.650843,"lon":-73.949575,"d":36.6544},{"name":"Beverly Rd","lat":40.645098,"lon":-73.948959,"d":37.2953},{"name":"Newkirk Av-Little Haiti","lat":40.639967,"lon":-73.948411,"d":37.8677},{"name":"Flatbush Av-Brooklyn College","lat":40.632836,"lon":-73.947642,"d":38.6633}]},{"id":"A","name":"8 Avenue Express","color":"#0062CF","shape":[[40.685951,-73.825798],[40.68549,-73.829196],[40.681406,-73.838801],[40.680259,-73.844906],[40.679248,-73.860673],[40.678653,-73.862592],[40.676166,-73.866636],[40.672154,-73.89479],[40.673061,-73.896124],[40.677156,-73.897365],[40.678017,-73.899135],[40.67839,-73.903165],[40.678225,-73.909823],[40.680591,-73.952921],[40.683675,-73.967769],[40.686888,-73.975986],[40.68672,-73.97948],[40.687086,-73.981149],[40.689841,-73.987858],[40.697395,-73.987036],[40.698713,-73.987562],[40.699244,-73.988758],[40.699572,-73.992732],[40.701679,-73.998841],[40.703221,-74.000749],[40.70883,-74.005187],[40.711571,-74.010112],[40.712312,-74.010001],[40.71831,-74.005329],[40.722659,-74.005189],[40.729019,-74.002529],[40.733596,-73.999652],[40.738964,-74.002514],[40.739821,-74.002463],[40.807392,-73.95319],[40.810332,-73.952898],[40.81493,-73.949046],[40.823739,-73.944926],[40.826202,-73.943229],[40.835014,-73.939841],[40.839366,-73.939871],[40.84434,-73.938885],[40.846369,-73.94009],[40.855701,-73.936628],[40.863788,-73.930354],[40.865599,-73.927016],[40.868072,-73.919899]],"shapeLen":37.7988,"stations":[{"name":"Beach 44 St","lat":40.592943,"lon":-73.776013,"d":0},{"name":"Beach 36 St","lat":40.595398,"lon":-73.768175,"d":0},{"name":"Beach 25 St","lat":40.600066,"lon":-73.761353,"d":0},{"name":"Far Rockaway-Mott Av","lat":40.603995,"lon":-73.755405,"d":0},{"name":"Ozone Park-Lefferts Blvd","lat":40.685951,"lon":-73.825798,"d":0},{"name":"111 St","lat":40.684331,"lon":-73.832163,"d":0.5723},{"name":"104 St","lat":40.681711,"lon":-73.837683,"d":1.1208},{"name":"Aqueduct-N Conduit Av","lat":40.668234,"lon":-73.834058,"d":1.2196},{"name":"Howard Beach-JFK Airport","lat":40.660476,"lon":-73.830301,"d":1.2196},{"name":"Beach 67 St","lat":40.590927,"lon":-73.796924,"d":1.2196},{"name":"Beach 60 St","lat":40.592374,"lon":-73.788522,"d":1.2196},{"name":"Aqueduct Racetrack","lat":40.672097,"lon":-73.835919,"d":1.2326},{"name":"Broad Channel","lat":40.608382,"lon":-73.815925,"d":1.2999},{"name":"Beach 90 St","lat":40.588034,"lon":-73.813641,"d":1.657},{"name":"Rockaway Blvd","lat":40.680429,"lon":-73.843853,"d":1.6592},{"name":"Beach 98 St","lat":40.585307,"lon":-73.820558,"d":1.75},{"name":"88 St","lat":40.679843,"lon":-73.85147,"d":2.3054},{"name":"80 St","lat":40.679371,"lon":-73.858992,"d":2.9419},{"name":"Grant Av","lat":40.677044,"lon":-73.86505,"d":3.5328},{"name":"Rockaway Park-Beach 116 St","lat":40.580903,"lon":-73.835592,"d":3.6982},{"name":"Beach 105 St","lat":40.583209,"lon":-73.827559,"d":3.6982},{"name":"Euclid Av","lat":40.675377,"lon":-73.872106,"d":4.1677},{"name":"Shepherd Av","lat":40.67413,"lon":-73.88075,"d":4.9098},{"name":"Van Siclen Av","lat":40.67271,"lon":-73.890358,"d":5.7353},{"name":"Liberty Av","lat":40.674542,"lon":-73.896548,"d":6.4336},{"name":"Broadway Junction","lat":40.678334,"lon":-73.905316,"d":7.4335},{"name":"Rockaway Av","lat":40.67834,"lon":-73.911946,"d":7.9933},{"name":"Ralph Av","lat":40.678822,"lon":-73.920786,"d":8.7407},{"name":"Utica Av","lat":40.679364,"lon":-73.930729,"d":9.5813},{"name":"Kingston-Throop Avs","lat":40.679921,"lon":-73.940858,"d":10.4377},{"name":"Nostrand Av","lat":40.680438,"lon":-73.950426,"d":11.2466},{"name":"Franklin Av","lat":40.68138,"lon":-73.956848,"d":11.8002},{"name":"Clinton-Washington Avs","lat":40.683263,"lon":-73.965838,"d":12.5866},{"name":"Lafayette Av","lat":40.686113,"lon":-73.973946,"d":13.3429},{"name":"Hoyt-Schermerhorn Sts","lat":40.688484,"lon":-73.985001,"d":14.3366},{"name":"Jay St-MetroTech","lat":40.692338,"lon":-73.987342,"d":14.9006},{"name":"High St","lat":40.699337,"lon":-73.990531,"d":15.8828},{"name":"Fulton St","lat":40.710197,"lon":-74.007691,"d":17.8583},{"name":"Chambers St","lat":40.714111,"lon":-74.008585,"d":18.4291},{"name":"Canal St","lat":40.720824,"lon":-74.005229,"d":19.2503},{"name":"Spring St","lat":40.726227,"lon":-74.003739,"d":19.8695},{"name":"W 4 St-Wash Sq","lat":40.732338,"lon":-74.000495,"d":20.6031},{"name":"14 St","lat":40.740893,"lon":-74.00169,"d":21.635},{"name":"23 St","lat":40.745906,"lon":-73.998041,"d":22.2715},{"name":"34 St-Penn Station","lat":40.752287,"lon":-73.993391,"d":23.082},{"name":"42 St-Port Authority Bus Terminal","lat":40.757308,"lon":-73.989735,"d":23.7196},{"name":"50 St","lat":40.762456,"lon":-73.985984,"d":24.3734},{"name":"59 St-Columbus Circle","lat":40.768296,"lon":-73.981736,"d":25.1148},{"name":"72 St","lat":40.775594,"lon":-73.97641,"d":26.042},{"name":"81 St-Museum of Natural History","lat":40.781433,"lon":-73.972143,"d":26.7841},{"name":"86 St","lat":40.785868,"lon":-73.968916,"d":27.3471},{"name":"96 St","lat":40.791642,"lon":-73.964696,"d":28.0809},{"name":"103 St","lat":40.796092,"lon":-73.961454,"d":28.646},{"name":"Cathedral Pkwy (110 St)","lat":40.800603,"lon":-73.958161,"d":29.2191},{"name":"116 St","lat":40.805085,"lon":-73.954882,"d":29.7888},{"name":"125 St","lat":40.811109,"lon":-73.952343,"d":30.508},{"name":"135 St","lat":40.817894,"lon":-73.947649,"d":31.3653},{"name":"145 St","lat":40.824783,"lon":-73.944216,"d":32.185},{"name":"155 St","lat":40.830518,"lon":-73.941514,"d":32.8645},{"name":"163 St-Amsterdam Av","lat":40.836013,"lon":-73.939892,"d":33.4949},{"name":"168 St","lat":40.840719,"lon":-73.939561,"d":34.0204},{"name":"175 St","lat":40.847391,"lon":-73.939704,"d":34.7925},{"name":"181 St","lat":40.851695,"lon":-73.937969,"d":35.2927},{"name":"190 St","lat":40.859022,"lon":-73.93418,"d":36.1748},{"name":"Dyckman St","lat":40.865491,"lon":-73.927271,"d":37.1157},{"name":"Inwood-207 St","lat":40.868072,"lon":-73.919899,"d":37.7988}]},{"id":"R","name":"Broadway Local","color":"#F6BC26","shape":[[40.721691,-73.844521],[40.723371,-73.848187],[40.72674,-73.85321],[40.731187,-73.865257],[40.733106,-73.869229],[40.734988,-73.875194],[40.736148,-73.876705],[40.740389,-73.879117],[40.742569,-73.882218],[40.758356,-73.917638],[40.75851,-73.918765],[40.758107,-73.919713],[40.752452,-73.924467],[40.751758,-73.933212],[40.749114,-73.936897],[40.747977,-73.94075],[40.749688,-73.942975],[40.75168,-73.943209],[40.752553,-73.944152],[40.764799,-73.972347],[40.764793,-73.974121],[40.766577,-73.978379],[40.76655,-73.979166],[40.756705,-73.986106],[40.752127,-73.98751],[40.731693,-73.991505],[40.711676,-74.008353],[40.711537,-74.010465],[40.706241,-74.014055],[40.701582,-74.012581],[40.700483,-74.011412],[40.696088,-73.998895],[40.693768,-73.990602],[40.692367,-73.98897],[40.691922,-73.982642],[40.689031,-73.980954],[40.68773,-73.978406],[40.684897,-73.97804],[40.676104,-73.983934],[40.66562,-73.992675],[40.636889,-74.022507],[40.616622,-74.030876]],"shapeLen":34.6523,"stations":[{"name":"Forest Hills-71 Av","lat":40.721691,"lon":-73.844521,"d":0},{"name":"67 Av","lat":40.726523,"lon":-73.852719,"d":0.8793},{"name":"63 Dr-Rego Park","lat":40.729846,"lon":-73.861604,"d":1.7134},{"name":"Woodhaven Blvd","lat":40.733106,"lon":-73.869229,"d":2.4524},{"name":"Grand Av-Newtown","lat":40.737015,"lon":-73.877223,"d":3.2838},{"name":"Elmhurst Av","lat":40.742454,"lon":-73.882017,"d":4.0268},{"name":"Jackson Hts-Roosevelt Av","lat":40.746644,"lon":-73.891338,"d":4.9399},{"name":"65 St","lat":40.749669,"lon":-73.898453,"d":5.627},{"name":"Northern Blvd","lat":40.752885,"lon":-73.906006,"d":6.3567},{"name":"46 St","lat":40.756312,"lon":-73.913333,"d":7.0819},{"name":"Steinway St","lat":40.756879,"lon":-73.92074,"d":7.8593},{"name":"Queens Plaza","lat":40.748973,"lon":-73.937243,"d":9.6442},{"name":"72 St","lat":40.768799,"lon":-73.958424,"d":12.5159},{"name":"96 St","lat":40.784318,"lon":-73.947152,"d":12.5506},{"name":"Lexington Av/59 St","lat":40.76266,"lon":-73.967258,"d":12.8219},{"name":"Lexington Av/63 St","lat":40.764629,"lon":-73.966113,"d":12.8471},{"name":"5 Av/59 St","lat":40.764811,"lon":-73.973347,"d":13.3963},{"name":"57 St-7 Av","lat":40.764664,"lon":-73.980658,"d":14.1818},{"name":"49 St","lat":40.759901,"lon":-73.984139,"d":14.7871},{"name":"Times Sq-42 St","lat":40.754672,"lon":-73.986754,"d":15.4111},{"name":"34 St-Herald Sq","lat":40.749567,"lon":-73.98795,"d":15.9882},{"name":"28 St","lat":40.745494,"lon":-73.988691,"d":16.4454},{"name":"23 St","lat":40.741303,"lon":-73.989344,"d":16.9144},{"name":"14 St-Union Sq","lat":40.735736,"lon":-73.990568,"d":17.5419},{"name":"8 St-NYU","lat":40.730328,"lon":-73.992629,"d":18.177},{"name":"Prince St","lat":40.724329,"lon":-73.997702,"d":18.9693},{"name":"Canal St","lat":40.719527,"lon":-74.001775,"d":19.6041},{"name":"City Hall","lat":40.713282,"lon":-74.006978,"d":20.4254},{"name":"Cortlandt St","lat":40.710668,"lon":-74.011029,"d":20.9246},{"name":"Rector St","lat":40.70722,"lon":-74.013342,"d":21.3547},{"name":"Whitehall St-South Ferry","lat":40.703087,"lon":-74.012994,"d":21.8409},{"name":"Court St","lat":40.6941,"lon":-73.991777,"d":23.9711},{"name":"Jay St-MetroTech","lat":40.69218,"lon":-73.985942,"d":24.5408},{"name":"DeKalb Av","lat":40.690635,"lon":-73.981824,"d":24.9793},{"name":"Atlantic Av-Barclays Ctr","lat":40.683666,"lon":-73.97881,"d":25.899},{"name":"Union St","lat":40.677316,"lon":-73.98311,"d":26.6928},{"name":"4 Av-9 St","lat":40.670847,"lon":-73.988302,"d":27.5354},{"name":"Prospect Av","lat":40.665414,"lon":-73.992872,"d":28.252},{"name":"25 St","lat":40.660397,"lon":-73.998091,"d":28.9626},{"name":"36 St","lat":40.655144,"lon":-74.003549,"d":29.7064},{"name":"9 Av","lat":40.646292,"lon":-73.994324,"d":29.9982},{"name":"45 St","lat":40.648939,"lon":-74.010006,"d":30.5854},{"name":"53 St","lat":40.645069,"lon":-74.014034,"d":31.1338},{"name":"59 St","lat":40.641362,"lon":-74.017881,"d":31.6584},{"name":"Bay Ridge Av","lat":40.634967,"lon":-74.023377,"d":32.5166},{"name":"62 St","lat":40.626472,"lon":-73.996895,"d":32.7498},{"name":"77 St","lat":40.629742,"lon":-74.02551,"d":33.1248},{"name":"86 St","lat":40.622687,"lon":-74.028398,"d":33.9463},{"name":"Bay Ridge-95 St","lat":40.616622,"lon":-74.030876,"d":34.6523},{"name":"Bay Pkwy","lat":40.601875,"lon":-73.993728,"d":34.6523}]},{"id":"N","name":"Broadway Local","color":"#F6BC26","shape":[[40.775036,-73.912034],[40.767889,-73.920542],[40.751841,-73.933601],[40.749172,-73.937018],[40.764799,-73.972347],[40.764787,-73.974097],[40.766577,-73.978379],[40.766507,-73.979239],[40.756569,-73.986154],[40.752127,-73.98751],[40.731779,-73.99146],[40.71965,-74.001592],[40.717433,-73.999149],[40.716268,-73.996287],[40.715108,-73.995141],[40.689232,-73.981117],[40.687686,-73.97838],[40.685024,-73.978003],[40.676104,-73.983934],[40.66562,-73.992675],[40.638189,-74.020943],[40.637301,-74.019604],[40.63517,-74.01198],[40.633502,-74.008839],[40.627076,-73.998255],[40.623709,-73.995414],[40.617146,-73.984597],[40.615584,-73.983015],[40.613511,-73.982195],[40.591296,-73.977999],[40.583922,-73.979992],[40.580704,-73.981437],[40.577422,-73.981233]],"shapeLen":32.5631,"stations":[{"name":"Astoria-Ditmars Blvd","lat":40.775036,"lon":-73.912034,"d":0},{"name":"Astoria Blvd","lat":40.770258,"lon":-73.917843,"d":0.7221},{"name":"96 St","lat":40.784318,"lon":-73.947152,"d":1.07},{"name":"30 Av","lat":40.766779,"lon":-73.921479,"d":1.2165},{"name":"Broadway","lat":40.76182,"lon":-73.925508,"d":1.8639},{"name":"36 Av","lat":40.756804,"lon":-73.929575,"d":2.5185},{"name":"39 Av-Dutch Kills","lat":40.752882,"lon":-73.932755,"d":3.0303},{"name":"Queensboro Plaza","lat":40.750582,"lon":-73.940202,"d":3.8903},{"name":"72 St","lat":40.768799,"lon":-73.958424,"d":6.2371},{"name":"Lexington Av/59 St","lat":40.76266,"lon":-73.967258,"d":6.5355},{"name":"Lexington Av/63 St","lat":40.764629,"lon":-73.966113,"d":6.5626},{"name":"5 Av/59 St","lat":40.764811,"lon":-73.973347,"d":7.1097},{"name":"57 St-7 Av","lat":40.764664,"lon":-73.980658,"d":7.8947},{"name":"49 St","lat":40.759901,"lon":-73.984139,"d":8.4999},{"name":"Times Sq-42 St","lat":40.754672,"lon":-73.986754,"d":9.1237},{"name":"34 St-Herald Sq","lat":40.749567,"lon":-73.98795,"d":9.7008},{"name":"28 St","lat":40.745494,"lon":-73.988691,"d":10.1579},{"name":"23 St","lat":40.741303,"lon":-73.989344,"d":10.627},{"name":"14 St-Union Sq","lat":40.735736,"lon":-73.990568,"d":11.2544},{"name":"8 St-NYU","lat":40.730328,"lon":-73.992629,"d":11.8897},{"name":"Prince St","lat":40.724329,"lon":-73.997702,"d":12.682},{"name":"Canal St","lat":40.719527,"lon":-74.001775,"d":13.2975},{"name":"City Hall","lat":40.713282,"lon":-74.006978,"d":13.5494},{"name":"Cortlandt St","lat":40.710668,"lon":-74.011029,"d":13.5537},{"name":"Rector St","lat":40.70722,"lon":-74.013342,"d":13.6181},{"name":"Whitehall St-South Ferry","lat":40.703087,"lon":-74.012994,"d":14.7177},{"name":"Court St","lat":40.6941,"lon":-73.991777,"d":16.3216},{"name":"Jay St-MetroTech","lat":40.69218,"lon":-73.985942,"d":16.706},{"name":"DeKalb Av","lat":40.690635,"lon":-73.981824,"d":16.9968},{"name":"Atlantic Av-Barclays Ctr","lat":40.683666,"lon":-73.97881,"d":17.9147},{"name":"Union St","lat":40.677316,"lon":-73.98311,"d":18.7084},{"name":"4 Av-9 St","lat":40.670847,"lon":-73.988302,"d":19.5509},{"name":"Prospect Av","lat":40.665414,"lon":-73.992872,"d":20.2676},{"name":"25 St","lat":40.660397,"lon":-73.998091,"d":20.9782},{"name":"36 St","lat":40.655144,"lon":-74.003549,"d":21.7219},{"name":"45 St","lat":40.648939,"lon":-74.010006,"d":22.601},{"name":"53 St","lat":40.645069,"lon":-74.014034,"d":23.1493},{"name":"59 St","lat":40.641362,"lon":-74.017881,"d":23.674},{"name":"8 Av","lat":40.635064,"lon":-74.011719,"d":24.9715},{"name":"Fort Hamilton Pkwy","lat":40.631386,"lon":-74.005351,"d":25.647},{"name":"New Utrecht Av","lat":40.624842,"lon":-73.996353,"d":26.7098},{"name":"18 Av","lat":40.620671,"lon":-73.990414,"d":27.3992},{"name":"20 Av","lat":40.61741,"lon":-73.985026,"d":27.9808},{"name":"Bay Pkwy","lat":40.611815,"lon":-73.981848,"d":28.678},{"name":"Kings Hwy","lat":40.603923,"lon":-73.980353,"d":29.5646},{"name":"Avenue U","lat":40.597473,"lon":-73.979137,"d":30.2891},{"name":"86 St","lat":40.592721,"lon":-73.97823,"d":30.823},{"name":"Coney Island-Stillwell Av","lat":40.577422,"lon":-73.981233,"d":32.5631}]},{"id":"4","name":"Lexington Avenue Express","color":"#009952","shape":[[40.668897,-73.932942],[40.670118,-73.955258],[40.673056,-73.968947],[40.675235,-73.971046],[40.688902,-73.981065],[40.692242,-73.989328],[40.693877,-73.999213],[40.695813,-74.005764],[40.702119,-74.014111],[40.703634,-74.014612],[40.705299,-74.013759],[40.711218,-74.00877],[40.71234,-74.00493],[40.71393,-74.003369],[40.715772,-74.002905],[40.730419,-73.990682],[40.735409,-73.989845],[40.751266,-73.978287],[40.7523,-73.975427],[40.808149,-73.934662],[40.813931,-73.929244],[40.821007,-73.926218],[40.825847,-73.927074],[40.837361,-73.920309],[40.838463,-73.918951],[40.850631,-73.910243],[40.856143,-73.905292],[40.861995,-73.90166],[40.870029,-73.895412],[40.874115,-73.889214],[40.877226,-73.88754],[40.882656,-73.881332],[40.886037,-73.878751]],"shapeLen":32.2051,"stations":[{"name":"Crown Hts-Utica Av","lat":40.668897,"lon":-73.932942,"d":0},{"name":"Sutter Av-Rutland Rd","lat":40.664717,"lon":-73.92261,"d":0},{"name":"Saratoga Av","lat":40.661453,"lon":-73.916327,"d":0},{"name":"Rockaway Av","lat":40.662549,"lon":-73.908946,"d":0},{"name":"Junius St","lat":40.663515,"lon":-73.902447,"d":0},{"name":"Pennsylvania Av","lat":40.664635,"lon":-73.894895,"d":0},{"name":"Van Siclen Av","lat":40.665449,"lon":-73.889395,"d":0},{"name":"New Lots Av","lat":40.666235,"lon":-73.884079,"d":0},{"name":"Kingston Av","lat":40.669399,"lon":-73.942161,"d":0.7795},{"name":"Nostrand Av","lat":40.669847,"lon":-73.950466,"d":1.4817},{"name":"Franklin Av-Medgar Evers College","lat":40.670682,"lon":-73.958131,"d":2.1372},{"name":"Eastern Pkwy-Brooklyn Museum","lat":40.671987,"lon":-73.964375,"d":2.6834},{"name":"Grand Army Plaza","lat":40.675235,"lon":-73.971046,"d":3.3869},{"name":"Bergen St","lat":40.680829,"lon":-73.975098,"d":4.0966},{"name":"Atlantic Av-Barclays Ctr","lat":40.684359,"lon":-73.977666,"d":4.5449},{"name":"Nevins St","lat":40.688246,"lon":-73.980492,"d":5.0384},{"name":"Borough Hall","lat":40.692404,"lon":-73.990151,"d":5.9868},{"name":"Bowling Green","lat":40.704817,"lon":-74.014065,"d":8.6673},{"name":"Wall St","lat":40.707557,"lon":-74.011862,"d":9.0242},{"name":"Fulton St","lat":40.710368,"lon":-74.009509,"d":9.3944},{"name":"Brooklyn Bridge-City Hall","lat":40.713065,"lon":-74.004131,"d":9.9594},{"name":"Canal St","lat":40.718803,"lon":-74.000193,"d":10.6904},{"name":"Spring St","lat":40.722301,"lon":-73.997141,"d":11.1566},{"name":"Bleecker St","lat":40.725915,"lon":-73.994659,"d":11.608},{"name":"Astor Pl","lat":40.730054,"lon":-73.99107,"d":12.1587},{"name":"14 St-Union Sq","lat":40.734673,"lon":-73.989951,"d":12.6875},{"name":"23 St-Baruch College","lat":40.739864,"lon":-73.986599,"d":13.3356},{"name":"28 St","lat":40.74307,"lon":-73.984264,"d":13.7428},{"name":"33 St","lat":40.746081,"lon":-73.982076,"d":14.125},{"name":"Grand Central-42 St","lat":40.751776,"lon":-73.976848,"d":14.9178},{"name":"51 St","lat":40.757107,"lon":-73.97192,"d":15.6616},{"name":"59 St","lat":40.762526,"lon":-73.967967,"d":16.3501},{"name":"68 St-Hunter College","lat":40.768141,"lon":-73.96387,"d":17.0634},{"name":"77 St","lat":40.77362,"lon":-73.959874,"d":17.7594},{"name":"86 St","lat":40.779492,"lon":-73.955589,"d":18.5054},{"name":"96 St","lat":40.785672,"lon":-73.95107,"d":19.2909},{"name":"103 St","lat":40.7906,"lon":-73.947478,"d":19.9168},{"name":"110 St","lat":40.79502,"lon":-73.94425,"d":20.4784},{"name":"116 St","lat":40.798629,"lon":-73.941617,"d":20.9368},{"name":"125 St","lat":40.804138,"lon":-73.937594,"d":21.6368},{"name":"138 St-Grand Concourse","lat":40.813224,"lon":-73.929849,"d":22.8411},{"name":"149 St-Grand Concourse","lat":40.818375,"lon":-73.927351,"d":23.4539},{"name":"161 St-Yankee Stadium","lat":40.827994,"lon":-73.925831,"d":24.5653},{"name":"167 St","lat":40.835537,"lon":-73.9214,"d":25.4832},{"name":"170 St","lat":40.840075,"lon":-73.917791,"d":26.0774},{"name":"Mt Eden Av","lat":40.844434,"lon":-73.914685,"d":26.628},{"name":"176 St","lat":40.84848,"lon":-73.911794,"d":27.1394},{"name":"Burnside Av","lat":40.853453,"lon":-73.907684,"d":27.7924},{"name":"183 St","lat":40.858407,"lon":-73.903879,"d":28.4312},{"name":"Fordham Rd","lat":40.862803,"lon":-73.901034,"d":28.9758},{"name":"Kingsbridge Rd","lat":40.86776,"lon":-73.897174,"d":29.6155},{"name":"Bedford Park Blvd-Lehman College","lat":40.873412,"lon":-73.890064,"d":30.4942},{"name":"Mosholu Pkwy","lat":40.87975,"lon":-73.884655,"d":31.3439},{"name":"Woodlawn","lat":40.886037,"lon":-73.878751,"d":32.2051}]},{"id":"C","name":"8 Avenue Local","color":"#0062CF","shape":[[40.675377,-73.872106],[40.672154,-73.89479],[40.673061,-73.896124],[40.677156,-73.897365],[40.678017,-73.899135],[40.67839,-73.903165],[40.678225,-73.909823],[40.68058,-73.952821],[40.683675,-73.967769],[40.686888,-73.975986],[40.686823,-73.980236],[40.689761,-73.987809],[40.697395,-73.987036],[40.69884,-73.987713],[40.699572,-73.992732],[40.701679,-73.998841],[40.703221,-74.000749],[40.70883,-74.005187],[40.711645,-74.010149],[40.71831,-74.005329],[40.722659,-74.005189],[40.729019,-74.002529],[40.733596,-73.999652],[40.738964,-74.002514],[40.739821,-74.002463],[40.807455,-73.953148],[40.810332,-73.952898],[40.81493,-73.949046],[40.823739,-73.944926],[40.826362,-73.943159],[40.835014,-73.939841],[40.840719,-73.939561]],"shapeLen":29.84,"stations":[{"name":"Euclid Av","lat":40.675377,"lon":-73.872106,"d":0},{"name":"Shepherd Av","lat":40.67413,"lon":-73.88075,"d":0.742},{"name":"Van Siclen Av","lat":40.67271,"lon":-73.890358,"d":1.5675},{"name":"Liberty Av","lat":40.674542,"lon":-73.896548,"d":2.2659},{"name":"Broadway Junction","lat":40.678334,"lon":-73.905316,"d":3.2658},{"name":"Rockaway Av","lat":40.67834,"lon":-73.911946,"d":3.8255},{"name":"Ralph Av","lat":40.678822,"lon":-73.920786,"d":4.5729},{"name":"Utica Av","lat":40.679364,"lon":-73.930729,"d":5.4136},{"name":"Kingston-Throop Avs","lat":40.679921,"lon":-73.940858,"d":6.2699},{"name":"Nostrand Av","lat":40.680438,"lon":-73.950426,"d":7.0788},{"name":"Franklin Av","lat":40.68138,"lon":-73.956848,"d":7.6324},{"name":"Clinton-Washington Avs","lat":40.683263,"lon":-73.965838,"d":8.4189},{"name":"Lafayette Av","lat":40.686113,"lon":-73.973946,"d":9.1752},{"name":"Hoyt-Schermerhorn Sts","lat":40.688484,"lon":-73.985001,"d":10.1678},{"name":"Jay St-MetroTech","lat":40.692338,"lon":-73.987342,"d":10.7319},{"name":"High St","lat":40.699337,"lon":-73.990531,"d":11.7088},{"name":"Fulton St","lat":40.710197,"lon":-74.007691,"d":13.6841},{"name":"Chambers St","lat":40.714111,"lon":-74.008585,"d":14.2503},{"name":"Canal St","lat":40.720824,"lon":-74.005229,"d":15.0713},{"name":"Spring St","lat":40.726227,"lon":-74.003739,"d":15.6905},{"name":"W 4 St-Wash Sq","lat":40.732338,"lon":-74.000495,"d":16.4241},{"name":"14 St","lat":40.740893,"lon":-74.00169,"d":17.4559},{"name":"23 St","lat":40.745906,"lon":-73.998041,"d":18.0925},{"name":"34 St-Penn Station","lat":40.752287,"lon":-73.993391,"d":18.903},{"name":"42 St-Port Authority Bus Terminal","lat":40.757308,"lon":-73.989735,"d":19.5406},{"name":"50 St","lat":40.762456,"lon":-73.985984,"d":20.1944},{"name":"59 St-Columbus Circle","lat":40.768296,"lon":-73.981736,"d":20.9358},{"name":"72 St","lat":40.775594,"lon":-73.97641,"d":21.863},{"name":"81 St-Museum of Natural History","lat":40.781433,"lon":-73.972143,"d":22.6051},{"name":"86 St","lat":40.785868,"lon":-73.968916,"d":23.1681},{"name":"96 St","lat":40.791642,"lon":-73.964696,"d":23.9019},{"name":"103 St","lat":40.796092,"lon":-73.961454,"d":24.467},{"name":"Cathedral Pkwy (110 St)","lat":40.800603,"lon":-73.958161,"d":25.0401},{"name":"116 St","lat":40.805085,"lon":-73.954882,"d":25.6098},{"name":"125 St","lat":40.811109,"lon":-73.952343,"d":26.3296},{"name":"135 St","lat":40.817894,"lon":-73.947649,"d":27.1869},{"name":"145 St","lat":40.824783,"lon":-73.944216,"d":28.0066},{"name":"155 St","lat":40.830518,"lon":-73.941514,"d":28.6858},{"name":"163 St-Amsterdam Av","lat":40.836013,"lon":-73.939892,"d":29.316},{"name":"168 St","lat":40.840719,"lon":-73.939561,"d":29.84}]},{"id":"M","name":"Queens Blvd Local/6 Av Local","color":"#EB6800","shape":[[40.721691,-73.844521],[40.723371,-73.848187],[40.72674,-73.85321],[40.731187,-73.865257],[40.733106,-73.869229],[40.734988,-73.875194],[40.736148,-73.876705],[40.740389,-73.879117],[40.742569,-73.882218],[40.758356,-73.917638],[40.75851,-73.918765],[40.758107,-73.919713],[40.752411,-73.92456],[40.751924,-73.932452],[40.750697,-73.935975],[40.756703,-73.947738],[40.766827,-73.97133],[40.767352,-73.973359],[40.766457,-73.975637],[40.729034,-74.002486],[40.72797,-74.002019],[40.725751,-73.997471],[40.723875,-73.992011],[40.720493,-73.992021],[40.719498,-73.99122],[40.710213,-73.96108],[40.708871,-73.959236],[40.706172,-73.951543],[40.696546,-73.934342],[40.697229,-73.933022],[40.69958,-73.911165],[40.703478,-73.906876],[40.707067,-73.89267],[40.709493,-73.890271],[40.711396,-73.889601]],"shapeLen":29.5006,"stations":[{"name":"Forest Hills-71 Av","lat":40.721691,"lon":-73.844521,"d":0},{"name":"67 Av","lat":40.726523,"lon":-73.852719,"d":0.8793},{"name":"63 Dr-Rego Park","lat":40.729846,"lon":-73.861604,"d":1.7134},{"name":"Woodhaven Blvd","lat":40.733106,"lon":-73.869229,"d":2.4524},{"name":"Grand Av-Newtown","lat":40.737015,"lon":-73.877223,"d":3.2838},{"name":"Elmhurst Av","lat":40.742454,"lon":-73.882017,"d":4.0268},{"name":"Jackson Hts-Roosevelt Av","lat":40.746644,"lon":-73.891338,"d":4.9399},{"name":"65 St","lat":40.749669,"lon":-73.898453,"d":5.627},{"name":"Northern Blvd","lat":40.752885,"lon":-73.906006,"d":6.3567},{"name":"46 St","lat":40.756312,"lon":-73.913333,"d":7.0819},{"name":"Steinway St","lat":40.756879,"lon":-73.92074,"d":7.8593},{"name":"36 St","lat":40.752039,"lon":-73.928781,"d":8.809},{"name":"21 St-Queensbridge","lat":40.754203,"lon":-73.942836,"d":10.142},{"name":"Roosevelt Island","lat":40.759145,"lon":-73.95326,"d":11.1782},{"name":"Lexington Av/63 St","lat":40.764629,"lon":-73.966113,"d":12.4207},{"name":"57 St","lat":40.763972,"lon":-73.97745,"d":13.6358},{"name":"47-50 Sts-Rockefeller Ctr","lat":40.758663,"lon":-73.981329,"d":14.3105},{"name":"42 St-Bryant Pk","lat":40.754222,"lon":-73.984569,"d":14.8747},{"name":"34 St-Herald Sq","lat":40.749719,"lon":-73.987823,"d":15.4455},{"name":"23 St","lat":40.742878,"lon":-73.992821,"d":16.3149},{"name":"14 St","lat":40.738228,"lon":-73.996209,"d":16.9055},{"name":"W 4 St-Wash Sq","lat":40.732338,"lon":-74.000495,"d":17.6534},{"name":"Broadway-Lafayette St","lat":40.725297,"lon":-73.996204,"d":18.7549},{"name":"Delancey St-Essex St","lat":40.718315,"lon":-73.987437,"d":19.9926},{"name":"Marcy Av","lat":40.708359,"lon":-73.957757,"d":22.7422},{"name":"Hewes St","lat":40.70687,"lon":-73.953431,"d":23.1427},{"name":"Lorimer St","lat":40.703869,"lon":-73.947408,"d":23.7522},{"name":"Flushing Av","lat":40.70026,"lon":-73.941126,"d":24.4166},{"name":"Myrtle Av","lat":40.697207,"lon":-73.935657,"d":24.9892},{"name":"Central Av","lat":40.697857,"lon":-73.927397,"d":25.7361},{"name":"Knickerbocker Av","lat":40.698664,"lon":-73.919711,"d":26.3902},{"name":"Myrtle-Wyckoff Avs","lat":40.69943,"lon":-73.912385,"d":27.0136},{"name":"Seneca Av","lat":40.702762,"lon":-73.90774,"d":27.5744},{"name":"Forest Av","lat":40.704423,"lon":-73.903077,"d":28.0193},{"name":"Fresh Pond Rd","lat":40.706186,"lon":-73.895877,"d":28.657},{"name":"Middle Village-Metropolitan Av","lat":40.711396,"lon":-73.889601,"d":29.5006}]},{"id":"3","name":"7 Avenue Express","color":"#D82233","shape":[[40.666235,-73.884079],[40.661198,-73.918245],[40.666124,-73.924177],[40.668473,-73.925986],[40.670118,-73.955258],[40.672999,-73.968779],[40.675235,-73.971046],[40.688856,-73.981001],[40.692361,-73.989447],[40.697046,-73.991667],[40.700828,-74.00471],[40.705083,-74.009957],[40.706375,-74.009488],[40.710376,-74.005763],[40.712431,-74.007548],[40.713961,-74.010353],[40.718334,-74.007089],[40.729642,-74.005062],[40.736761,-74.000973],[40.757638,-73.985786],[40.764386,-73.98232],[40.767324,-73.981689],[40.777869,-73.982058],[40.783149,-73.980473],[40.79908,-73.968295],[40.799164,-73.966773],[40.796872,-73.960984],[40.798665,-73.952174],[40.821793,-73.935099],[40.823066,-73.934777],[40.82388,-73.93647]],"shapeLen":29.1386,"stations":[{"name":"New Lots Av","lat":40.666235,"lon":-73.884079,"d":0},{"name":"Van Siclen Av","lat":40.665449,"lon":-73.889395,"d":0.4568},{"name":"Pennsylvania Av","lat":40.664635,"lon":-73.894895,"d":0.9295},{"name":"Junius St","lat":40.663515,"lon":-73.902447,"d":1.5785},{"name":"Rockaway Av","lat":40.662549,"lon":-73.908946,"d":2.1371},{"name":"Saratoga Av","lat":40.661453,"lon":-73.916327,"d":2.7715},{"name":"Sutter Av-Rutland Rd","lat":40.664717,"lon":-73.92261,"d":3.4729},{"name":"Crown Hts-Utica Av","lat":40.668897,"lon":-73.932942,"d":4.5686},{"name":"Kingston Av","lat":40.669399,"lon":-73.942161,"d":5.3482},{"name":"Nostrand Av","lat":40.669847,"lon":-73.950466,"d":6.0504},{"name":"Franklin Av-Medgar Evers College","lat":40.670682,"lon":-73.958131,"d":6.7059},{"name":"Eastern Pkwy-Brooklyn Museum","lat":40.671987,"lon":-73.964375,"d":7.2521},{"name":"Grand Army Plaza","lat":40.675235,"lon":-73.971046,"d":7.9537},{"name":"Bergen St","lat":40.680829,"lon":-73.975098,"d":8.6634},{"name":"Atlantic Av-Barclays Ctr","lat":40.684359,"lon":-73.977666,"d":9.1117},{"name":"Nevins St","lat":40.688246,"lon":-73.980492,"d":9.6053},{"name":"Hoyt St","lat":40.690545,"lon":-73.985065,"d":10.0761},{"name":"Borough Hall","lat":40.693219,"lon":-73.989998,"d":10.6027},{"name":"Clark St","lat":40.697466,"lon":-73.993086,"d":11.1791},{"name":"Wall St","lat":40.706821,"lon":-74.0091,"d":13.084},{"name":"Fulton St","lat":40.709416,"lon":-74.006571,"d":13.4427},{"name":"Park Place","lat":40.713051,"lon":-74.008811,"d":13.9694},{"name":"Chambers St","lat":40.715478,"lon":-74.009266,"d":14.3259},{"name":"14 St","lat":40.737826,"lon":-74.000201,"d":16.9601},{"name":"34 St-Penn Station","lat":40.750373,"lon":-73.991057,"d":18.5538},{"name":"Times Sq-42 St","lat":40.75529,"lon":-73.987495,"d":19.1774},{"name":"72 St","lat":40.778453,"lon":-73.98197,"d":21.8496},{"name":"96 St","lat":40.793919,"lon":-73.972323,"d":23.7669},{"name":"110 St-Malcolm X Plaza","lat":40.799075,"lon":-73.951822,"d":25.934},{"name":"116 St","lat":40.802098,"lon":-73.949625,"d":26.3177},{"name":"125 St","lat":40.807754,"lon":-73.945495,"d":27.0362},{"name":"135 St","lat":40.814229,"lon":-73.94077,"d":27.8587},{"name":"145 St","lat":40.820421,"lon":-73.936245,"d":28.6455},{"name":"Harlem-148 St","lat":40.82388,"lon":-73.93647,"d":29.1386}]},{"id":"Q","name":"Broadway Express","color":"#F6BC26","shape":[[40.577422,-73.981233],[40.576199,-73.980689],[40.575754,-73.977603],[40.576739,-73.97367],[40.576358,-73.96744],[40.577894,-73.960148],[40.586216,-73.954225],[40.590785,-73.954319],[40.644407,-73.964544],[40.656798,-73.961394],[40.663705,-73.96282],[40.682608,-73.976398],[40.687437,-73.977522],[40.689232,-73.981117],[40.715108,-73.995141],[40.716268,-73.996287],[40.717394,-73.999092],[40.719519,-74.001622],[40.731779,-73.99146],[40.752127,-73.98751],[40.756705,-73.986106],[40.768274,-73.977993],[40.769062,-73.97666],[40.768949,-73.975249],[40.763973,-73.964558],[40.763949,-73.962301],[40.783471,-73.947656]],"shapeLen":28.7316,"stations":[{"name":"Coney Island-Stillwell Av","lat":40.577422,"lon":-73.981233,"d":0},{"name":"W 8 St-NY Aquarium","lat":40.576127,"lon":-73.975939,"d":0.5553},{"name":"Ocean Pkwy","lat":40.576312,"lon":-73.968501,"d":1.1976},{"name":"Brighton Beach","lat":40.577621,"lon":-73.961376,"d":1.8175},{"name":"Sheepshead Bay","lat":40.586896,"lon":-73.954155,"d":3.053},{"name":"Neck Rd","lat":40.595246,"lon":-73.955161,"d":3.9867},{"name":"Avenue U","lat":40.5993,"lon":-73.955929,"d":4.4421},{"name":"Kings Hwy","lat":40.60867,"lon":-73.957734,"d":5.4951},{"name":"Avenue M","lat":40.617618,"lon":-73.959399,"d":6.4999},{"name":"Avenue J","lat":40.625039,"lon":-73.960803,"d":7.3336},{"name":"Avenue H","lat":40.62927,"lon":-73.961639,"d":7.8093},{"name":"Newkirk Plaza","lat":40.635082,"lon":-73.962793,"d":8.4628},{"name":"Cortelyou Rd","lat":40.640927,"lon":-73.963891,"d":9.1193},{"name":"Beverley Rd","lat":40.644031,"lon":-73.964492,"d":9.4682},{"name":"Church Av","lat":40.650527,"lon":-73.962982,"d":10.2034},{"name":"Parkside Av","lat":40.655292,"lon":-73.961495,"d":10.7474},{"name":"Prospect Park","lat":40.661614,"lon":-73.962246,"d":11.4536},{"name":"7 Av","lat":40.67705,"lon":-73.972367,"d":13.3791},{"name":"Atlantic Av-Barclays Ctr","lat":40.68446,"lon":-73.97689,"d":14.2944},{"name":"DeKalb Av","lat":40.690635,"lon":-73.981824,"d":15.1595},{"name":"Canal St","lat":40.718383,"lon":-74.00046,"d":18.6908},{"name":"Prince St","lat":40.724329,"lon":-73.997702,"d":19.4788},{"name":"8 St-NYU","lat":40.730328,"lon":-73.992629,"d":20.2711},{"name":"14 St-Union Sq","lat":40.735736,"lon":-73.990568,"d":20.9063},{"name":"23 St","lat":40.741303,"lon":-73.989344,"d":21.5338},{"name":"28 St","lat":40.745494,"lon":-73.988691,"d":22.0028},{"name":"34 St-Herald Sq","lat":40.749567,"lon":-73.98795,"d":22.46},{"name":"Times Sq-42 St","lat":40.754672,"lon":-73.986754,"d":23.0371},{"name":"49 St","lat":40.759901,"lon":-73.984139,"d":23.6612},{"name":"57 St-7 Av","lat":40.764664,"lon":-73.980658,"d":24.2665},{"name":"Lexington Av/63 St","lat":40.764629,"lon":-73.966113,"d":25.8952},{"name":"72 St","lat":40.768799,"lon":-73.958424,"d":26.8652},{"name":"86 St","lat":40.777891,"lon":-73.951787,"d":28.0203},{"name":"96 St","lat":40.784318,"lon":-73.947152,"d":28.7316}]},{"id":"E","name":"8 Avenue Local","color":"#0062CF","shape":[[40.712582,-74.009781],[40.718309,-74.005325],[40.722659,-74.005189],[40.729019,-74.002529],[40.733596,-73.999652],[40.739744,-74.002502],[40.763365,-73.985322],[40.763838,-73.984216],[40.754839,-73.96263],[40.749795,-73.954605],[40.747287,-73.943063],[40.747385,-73.941678],[40.749083,-73.936963],[40.751258,-73.934331],[40.751924,-73.932452],[40.752132,-73.925796],[40.753847,-73.91716],[40.753044,-73.911187],[40.752988,-73.906278],[40.742256,-73.881662],[40.740326,-73.87906],[40.736327,-73.876834],[40.735106,-73.875429],[40.733106,-73.869229],[40.731187,-73.865257],[40.726443,-73.852538],[40.723371,-73.848187],[40.717531,-73.835753],[40.714441,-73.831008],[40.710516,-73.821757],[40.704945,-73.817983],[40.701042,-73.816062],[40.700115,-73.815003],[40.699383,-73.811503],[40.702147,-73.801109]],"shapeLen":24.8283,"stations":[{"name":"World Trade Center","lat":40.712582,"lon":-74.009781,"d":0},{"name":"Canal St","lat":40.720824,"lon":-74.005229,"d":1.0191},{"name":"Spring St","lat":40.726227,"lon":-74.003739,"d":1.6383},{"name":"W 4 St-Wash Sq","lat":40.732338,"lon":-74.000495,"d":2.3719},{"name":"14 St","lat":40.740893,"lon":-74.00169,"d":3.3982},{"name":"23 St","lat":40.745906,"lon":-73.998041,"d":4.0348},{"name":"34 St-Penn Station","lat":40.752287,"lon":-73.993391,"d":4.8453},{"name":"42 St-Port Authority Bus Terminal","lat":40.757308,"lon":-73.989735,"d":5.4829},{"name":"50 St","lat":40.762456,"lon":-73.985984,"d":6.1367},{"name":"7 Av","lat":40.762862,"lon":-73.981637,"d":6.6017},{"name":"5 Av/53 St","lat":40.760167,"lon":-73.975224,"d":7.2194},{"name":"Lexington Av/53 St","lat":40.757552,"lon":-73.969055,"d":7.8148},{"name":"Court Sq-23 St","lat":40.747846,"lon":-73.946,"d":10.0693},{"name":"Queens Plaza","lat":40.748973,"lon":-73.937243,"d":10.8546},{"name":"36 St","lat":40.752039,"lon":-73.928781,"d":11.6935},{"name":"Steinway St","lat":40.756879,"lon":-73.92074,"d":12.491},{"name":"46 St","lat":40.756312,"lon":-73.913333,"d":12.9667},{"name":"Northern Blvd","lat":40.752885,"lon":-73.906006,"d":13.6473},{"name":"65 St","lat":40.749669,"lon":-73.898453,"d":14.3771},{"name":"Jackson Hts-Roosevelt Av","lat":40.746644,"lon":-73.891338,"d":15.0644},{"name":"Elmhurst Av","lat":40.742454,"lon":-73.882017,"d":15.9774},{"name":"Grand Av-Newtown","lat":40.737015,"lon":-73.877223,"d":16.7204},{"name":"Woodhaven Blvd","lat":40.733106,"lon":-73.869229,"d":17.5515},{"name":"63 Dr-Rego Park","lat":40.729846,"lon":-73.861604,"d":18.2905},{"name":"67 Av","lat":40.726523,"lon":-73.852719,"d":19.1254},{"name":"Forest Hills-71 Av","lat":40.721691,"lon":-73.844521,"d":20.0051},{"name":"75 Av","lat":40.718331,"lon":-73.837324,"d":20.7175},{"name":"Kew Gardens-Union Tpke","lat":40.714441,"lon":-73.831008,"d":21.4041},{"name":"Briarwood","lat":40.709179,"lon":-73.820574,"d":22.4755},{"name":"Sutphin Blvd","lat":40.70546,"lon":-73.810708,"d":23.1548},{"name":"Jamaica-Van Wyck","lat":40.702566,"lon":-73.816859,"d":23.275},{"name":"Sutphin Blvd-Archer Av-JFK Airport","lat":40.700486,"lon":-73.807969,"d":24.2214},{"name":"Jamaica Center-Parsons/Archer","lat":40.702147,"lon":-73.801109,"d":24.8283},{"name":"Jamaica-179 St","lat":40.712646,"lon":-73.783817,"d":24.8283},{"name":"Parsons Blvd","lat":40.707564,"lon":-73.803326,"d":24.8283},{"name":"169 St","lat":40.71047,"lon":-73.793604,"d":24.8283}]},{"id":"6","name":"Lexington Avenue Local","color":"#009952","shape":[[40.852462,-73.828121],[40.851504,-73.829753],[40.847525,-73.831662],[40.843176,-73.837214],[40.840497,-73.842229],[40.834507,-73.849555],[40.833086,-73.86208],[40.828806,-73.877051],[40.827972,-73.885653],[40.822555,-73.887547],[40.821284,-73.889486],[40.820445,-73.891955],[40.81364,-73.899013],[40.812148,-73.904032],[40.810301,-73.90691],[40.806618,-73.908493],[40.804858,-73.912165],[40.810659,-73.926578],[40.812339,-73.929045],[40.812093,-73.930931],[40.808149,-73.934662],[40.7523,-73.975427],[40.751266,-73.978287],[40.735409,-73.989845],[40.730419,-73.990682],[40.715772,-74.002905],[40.714102,-74.003263],[40.713065,-74.004131]],"shapeLen":24.0202,"stations":[{"name":"Pelham Bay Park","lat":40.852462,"lon":-73.828121,"d":0},{"name":"Buhre Av","lat":40.84681,"lon":-73.832569,"d":0.7546},{"name":"Middletown Rd","lat":40.843863,"lon":-73.836322,"d":1.2096},{"name":"Westchester Sq-E Tremont Av","lat":40.839892,"lon":-73.842952,"d":1.9238},{"name":"Zerega Av","lat":40.836488,"lon":-73.847036,"d":2.435},{"name":"Castle Hill Av","lat":40.834255,"lon":-73.851222,"d":2.8835},{"name":"Parkchester","lat":40.833226,"lon":-73.860816,"d":3.6986},{"name":"St Lawrence Av","lat":40.831509,"lon":-73.867618,"d":4.304},{"name":"Morrison Av-Soundview","lat":40.829521,"lon":-73.874516,"d":4.925},{"name":"Elder Av","lat":40.828584,"lon":-73.879159,"d":5.3317},{"name":"Whitlock Av","lat":40.826525,"lon":-73.886283,"d":6.0514},{"name":"Hunts Point Av","lat":40.820948,"lon":-73.890549,"d":6.8181},{"name":"Longwood Av","lat":40.816104,"lon":-73.896435,"d":7.5614},{"name":"E 149 St","lat":40.812118,"lon":-73.904098,"d":8.3711},{"name":"E 143 St-St Mary's St","lat":40.808719,"lon":-73.907657,"d":8.869},{"name":"Cypress Av","lat":40.805368,"lon":-73.914042,"d":9.6449},{"name":"Brook Av","lat":40.807566,"lon":-73.91924,"d":10.1459},{"name":"3 Av-138 St","lat":40.810476,"lon":-73.926138,"d":10.8104},{"name":"125 St","lat":40.804138,"lon":-73.937594,"d":12.3421},{"name":"116 St","lat":40.798629,"lon":-73.941617,"d":13.042},{"name":"110 St","lat":40.79502,"lon":-73.94425,"d":13.5005},{"name":"103 St","lat":40.7906,"lon":-73.947478,"d":14.0621},{"name":"96 St","lat":40.785672,"lon":-73.95107,"d":14.6879},{"name":"86 St","lat":40.779492,"lon":-73.955589,"d":15.4734},{"name":"77 St","lat":40.77362,"lon":-73.959874,"d":16.2194},{"name":"68 St-Hunter College","lat":40.768141,"lon":-73.96387,"d":16.9154},{"name":"59 St","lat":40.762526,"lon":-73.967967,"d":17.6288},{"name":"51 St","lat":40.757107,"lon":-73.97192,"d":18.3172},{"name":"Grand Central-42 St","lat":40.751776,"lon":-73.976848,"d":19.061},{"name":"33 St","lat":40.746081,"lon":-73.982076,"d":19.8539},{"name":"28 St","lat":40.74307,"lon":-73.984264,"d":20.2361},{"name":"23 St-Baruch College","lat":40.739864,"lon":-73.986599,"d":20.6432},{"name":"14 St-Union Sq","lat":40.734673,"lon":-73.989951,"d":21.2914},{"name":"Astor Pl","lat":40.730054,"lon":-73.99107,"d":21.8202},{"name":"Bleecker St","lat":40.725915,"lon":-73.994659,"d":22.3708},{"name":"Spring St","lat":40.722301,"lon":-73.997141,"d":22.8222},{"name":"Canal St","lat":40.718803,"lon":-74.000193,"d":23.2884},{"name":"Brooklyn Bridge-City Hall","lat":40.713065,"lon":-74.004131,"d":24.0202}]},{"id":"6X","name":"Pelham Bay Park Express","color":"#009952","shape":[[40.713065,-74.004131],[40.714102,-74.003263],[40.715772,-74.002905],[40.730419,-73.990682],[40.735409,-73.989845],[40.751266,-73.978287],[40.7523,-73.975427],[40.808149,-73.934662],[40.812093,-73.930931],[40.812339,-73.929045],[40.810659,-73.926578],[40.804858,-73.912165],[40.806618,-73.908493],[40.810301,-73.90691],[40.812148,-73.904032],[40.81364,-73.899013],[40.820445,-73.891955],[40.821284,-73.889486],[40.822555,-73.887547],[40.827972,-73.885653],[40.828806,-73.877051],[40.833086,-73.86208],[40.834507,-73.849555],[40.840497,-73.842229],[40.843176,-73.837214],[40.847525,-73.831662],[40.851504,-73.829753],[40.852462,-73.828121]],"shapeLen":24.0202,"stations":[{"name":"Brooklyn Bridge-City Hall","lat":40.713065,"lon":-74.004131,"d":0},{"name":"Canal St","lat":40.718803,"lon":-74.000193,"d":0.7317},{"name":"Spring St","lat":40.722301,"lon":-73.997141,"d":1.1979},{"name":"Bleecker St","lat":40.725915,"lon":-73.994659,"d":1.6493},{"name":"Astor Pl","lat":40.730054,"lon":-73.99107,"d":2.2},{"name":"14 St-Union Sq","lat":40.734673,"lon":-73.989951,"d":2.7288},{"name":"23 St-Baruch College","lat":40.739864,"lon":-73.986599,"d":3.3769},{"name":"28 St","lat":40.74307,"lon":-73.984264,"d":3.7841},{"name":"33 St","lat":40.746081,"lon":-73.982076,"d":4.1663},{"name":"Grand Central-42 St","lat":40.751776,"lon":-73.976848,"d":4.9591},{"name":"51 St","lat":40.757107,"lon":-73.97192,"d":5.7029},{"name":"59 St","lat":40.762526,"lon":-73.967967,"d":6.3914},{"name":"68 St-Hunter College","lat":40.768141,"lon":-73.96387,"d":7.1047},{"name":"77 St","lat":40.77362,"lon":-73.959874,"d":7.8007},{"name":"86 St","lat":40.779492,"lon":-73.955589,"d":8.5467},{"name":"96 St","lat":40.785672,"lon":-73.95107,"d":9.3322},{"name":"103 St","lat":40.7906,"lon":-73.947478,"d":9.9581},{"name":"110 St","lat":40.79502,"lon":-73.94425,"d":10.5197},{"name":"116 St","lat":40.798629,"lon":-73.941617,"d":10.9781},{"name":"125 St","lat":40.804138,"lon":-73.937594,"d":11.6781},{"name":"3 Av-138 St","lat":40.810476,"lon":-73.926138,"d":13.2098},{"name":"Hunts Point Av","lat":40.820948,"lon":-73.890549,"d":17.202},{"name":"Parkchester","lat":40.833226,"lon":-73.860816,"d":20.3215},{"name":"Castle Hill Av","lat":40.834255,"lon":-73.851222,"d":21.1367},{"name":"Zerega Av","lat":40.836488,"lon":-73.847036,"d":21.5852},{"name":"Westchester Sq-E Tremont Av","lat":40.839892,"lon":-73.842952,"d":22.0963},{"name":"Middletown Rd","lat":40.843863,"lon":-73.836322,"d":22.8105},{"name":"Buhre Av","lat":40.84681,"lon":-73.832569,"d":23.2655},{"name":"Pelham Bay Park","lat":40.852462,"lon":-73.828121,"d":24.0202}]},{"id":"1","name":"Broadway - 7 Avenue Local","color":"#D82233","shape":[[40.702068,-74.013664],[40.703391,-74.014952],[40.704487,-74.015086],[40.712394,-74.011986],[40.718262,-74.007117],[40.729642,-74.005062],[40.736761,-74.000973],[40.757638,-73.985786],[40.764029,-73.982464],[40.767324,-73.981689],[40.777869,-73.982058],[40.783149,-73.980473],[40.798954,-73.96866],[40.803121,-73.967465],[40.861,-73.92519],[40.863669,-73.919565],[40.871376,-73.913803],[40.877176,-73.906061],[40.883467,-73.901602],[40.889248,-73.898583]],"shapeLen":23.486,"stations":[{"name":"South Ferry","lat":40.702068,"lon":-74.013664,"d":0},{"name":"Rector St","lat":40.707513,"lon":-74.013783,"d":0.6591},{"name":"WTC Cortlandt","lat":40.711835,"lon":-74.012188,"d":1.158},{"name":"Chambers St","lat":40.715478,"lon":-74.009266,"d":1.6348},{"name":"Franklin St","lat":40.719318,"lon":-74.006886,"d":2.1122},{"name":"Canal St","lat":40.722854,"lon":-74.006277,"d":2.5088},{"name":"Houston St","lat":40.728251,"lon":-74.005367,"d":3.1137},{"name":"Christopher St-Stonewall","lat":40.733422,"lon":-74.002906,"d":3.7284},{"name":"14 St","lat":40.737826,"lon":-74.000201,"d":4.2689},{"name":"18 St","lat":40.74104,"lon":-73.997871,"d":4.6766},{"name":"23 St","lat":40.744081,"lon":-73.995657,"d":5.0628},{"name":"28 St","lat":40.747215,"lon":-73.993365,"d":5.4612},{"name":"34 St-Penn Station","lat":40.750373,"lon":-73.991057,"d":5.8626},{"name":"Times Sq-42 St","lat":40.75529,"lon":-73.987495,"d":6.4863},{"name":"50 St","lat":40.761728,"lon":-73.983849,"d":7.2673},{"name":"59 St-Columbus Circle","lat":40.768247,"lon":-73.981929,"d":8.0234},{"name":"66 St-Lincoln Center","lat":40.77344,"lon":-73.982209,"d":8.6013},{"name":"72 St","lat":40.778453,"lon":-73.98197,"d":9.1582},{"name":"79 St","lat":40.783934,"lon":-73.979917,"d":9.7944},{"name":"86 St","lat":40.788644,"lon":-73.976218,"d":10.4035},{"name":"96 St","lat":40.793919,"lon":-73.972323,"d":11.0755},{"name":"103 St","lat":40.799446,"lon":-73.968379,"d":11.7731},{"name":"Cathedral Pkwy (110 St)","lat":40.803967,"lon":-73.966847,"d":12.2963},{"name":"116 St-Columbia University","lat":40.807722,"lon":-73.96411,"d":12.7731},{"name":"125 St","lat":40.815581,"lon":-73.958372,"d":13.7716},{"name":"137 St-City College","lat":40.822008,"lon":-73.953676,"d":14.5882},{"name":"145 St","lat":40.826551,"lon":-73.95036,"d":15.1653},{"name":"157 St","lat":40.834041,"lon":-73.94489,"d":16.1168},{"name":"168 St-Washington Hts","lat":40.840556,"lon":-73.940133,"d":16.9445},{"name":"181 St","lat":40.849505,"lon":-73.933596,"d":18.0814},{"name":"191 St","lat":40.855225,"lon":-73.929412,"d":18.8083},{"name":"Dyckman St","lat":40.860531,"lon":-73.925536,"d":19.4823},{"name":"207 St","lat":40.864621,"lon":-73.918822,"d":20.2234},{"name":"215 St","lat":40.869444,"lon":-73.915279,"d":20.8369},{"name":"Marble Hill-225 St","lat":40.874561,"lon":-73.909831,"d":21.5714},{"name":"231 St","lat":40.878856,"lon":-73.904834,"d":22.2147},{"name":"238 St","lat":40.884667,"lon":-73.90087,"d":22.9416},{"name":"Van Cortlandt Park-242 St","lat":40.889248,"lon":-73.898583,"d":23.486}]},{"id":"J","name":"Nassau St Local","color":"#8E5C33","shape":[[40.702147,-73.801109],[40.698461,-73.815451],[40.698788,-73.817888],[40.701208,-73.822028],[40.701387,-73.823901],[40.699628,-73.832227],[40.695451,-73.839948],[40.695089,-73.846094],[40.694227,-73.850485],[40.69282,-73.854712],[40.692134,-73.862254],[40.690449,-73.871142],[40.689128,-73.873914],[40.684107,-73.872326],[40.683546,-73.872598],[40.678318,-73.889776],[40.676847,-73.899757],[40.706258,-73.951721],[40.708871,-73.959236],[40.710251,-73.961186],[40.721196,-73.996655],[40.721083,-73.997396],[40.71908,-73.999102],[40.712522,-74.003883],[40.710663,-74.007266],[40.706476,-74.011056]],"shapeLen":21.3477,"stations":[{"name":"Jamaica Center-Parsons/Archer","lat":40.702147,"lon":-73.801109,"d":0},{"name":"Sutphin Blvd-Archer Av-JFK Airport","lat":40.700486,"lon":-73.807969,"d":0.607},{"name":"121 St","lat":40.700492,"lon":-73.828294,"d":2.4685},{"name":"111 St","lat":40.697418,"lon":-73.836345,"d":3.2391},{"name":"104 St","lat":40.695178,"lon":-73.84433,"d":3.984},{"name":"Woodhaven Blvd","lat":40.693879,"lon":-73.851576,"d":4.6152},{"name":"85 St-Forest Pkwy","lat":40.692435,"lon":-73.86001,"d":5.3533},{"name":"75 St-Elderts Ln","lat":40.691324,"lon":-73.867139,"d":5.9665},{"name":"Cypress Hills","lat":40.689941,"lon":-73.87255,"d":6.4481},{"name":"Crescent St","lat":40.683194,"lon":-73.873785,"d":7.3416},{"name":"Norwood Av","lat":40.68141,"lon":-73.880039,"d":7.9049},{"name":"Cleveland St","lat":40.679947,"lon":-73.884639,"d":8.3255},{"name":"Van Siclen Av","lat":40.678024,"lon":-73.891688,"d":8.9595},{"name":"Alabama Av","lat":40.676992,"lon":-73.898654,"d":9.558},{"name":"Broadway Junction","lat":40.679498,"lon":-73.904512,"d":10.1501},{"name":"Chauncey St","lat":40.682893,"lon":-73.910456,"d":10.7776},{"name":"Halsey St","lat":40.68637,"lon":-73.916559,"d":11.4212},{"name":"Gates Av","lat":40.68963,"lon":-73.92227,"d":12.0239},{"name":"Kosciuszko St","lat":40.693342,"lon":-73.928814,"d":12.713},{"name":"Myrtle Av","lat":40.697207,"lon":-73.935657,"d":13.4324},{"name":"Flushing Av","lat":40.70026,"lon":-73.941126,"d":14.0049},{"name":"Lorimer St","lat":40.703869,"lon":-73.947408,"d":14.6693},{"name":"Hewes St","lat":40.70687,"lon":-73.953431,"d":15.279},{"name":"Marcy Av","lat":40.708359,"lon":-73.957757,"d":15.6794},{"name":"Delancey St-Essex St","lat":40.718315,"lon":-73.987437,"d":18.4286},{"name":"Bowery","lat":40.72028,"lon":-73.993915,"d":19.0167},{"name":"Canal St","lat":40.718092,"lon":-73.999892,"d":19.7261},{"name":"Chambers St","lat":40.713243,"lon":-74.003401,"d":20.3411},{"name":"Fulton St","lat":40.710374,"lon":-74.007582,"d":20.8246},{"name":"Broad St","lat":40.706476,"lon":-74.011056,"d":21.3477}]},{"id":"Z","name":"Nassau St Express","color":"#8E5C33","shape":[[40.702147,-73.801109],[40.698461,-73.815451],[40.698788,-73.817888],[40.701208,-73.822028],[40.701387,-73.823901],[40.699628,-73.832227],[40.695451,-73.839948],[40.695089,-73.846094],[40.694227,-73.850485],[40.69282,-73.854712],[40.692134,-73.862254],[40.690449,-73.871142],[40.689128,-73.873914],[40.684107,-73.872326],[40.683546,-73.872598],[40.678318,-73.889776],[40.676847,-73.899757],[40.706258,-73.951721],[40.708871,-73.959236],[40.710251,-73.961186],[40.721196,-73.996655],[40.721083,-73.997396],[40.71908,-73.999102],[40.712522,-74.003883],[40.710663,-74.007266],[40.706476,-74.011056]],"shapeLen":21.3477,"stations":[{"name":"Jamaica Center-Parsons/Archer","lat":40.702147,"lon":-73.801109,"d":0},{"name":"Sutphin Blvd-Archer Av-JFK Airport","lat":40.700486,"lon":-73.807969,"d":0.607},{"name":"121 St","lat":40.700492,"lon":-73.828294,"d":2.4685},{"name":"104 St","lat":40.695178,"lon":-73.84433,"d":3.984},{"name":"Woodhaven Blvd","lat":40.693879,"lon":-73.851576,"d":4.6152},{"name":"75 St-Elderts Ln","lat":40.691324,"lon":-73.867139,"d":5.9665},{"name":"Crescent St","lat":40.683194,"lon":-73.873785,"d":7.3416},{"name":"Norwood Av","lat":40.68141,"lon":-73.880039,"d":7.9049},{"name":"Van Siclen Av","lat":40.678024,"lon":-73.891688,"d":8.9595},{"name":"Alabama Av","lat":40.676992,"lon":-73.898654,"d":9.558},{"name":"Broadway Junction","lat":40.679498,"lon":-73.904512,"d":10.1501},{"name":"Chauncey St","lat":40.682893,"lon":-73.910456,"d":10.7776},{"name":"Gates Av","lat":40.68963,"lon":-73.92227,"d":12.0239},{"name":"Myrtle Av","lat":40.697207,"lon":-73.935657,"d":13.4324},{"name":"Marcy Av","lat":40.708359,"lon":-73.957757,"d":15.6794},{"name":"Delancey St-Essex St","lat":40.718315,"lon":-73.987437,"d":18.4286},{"name":"Bowery","lat":40.72028,"lon":-73.993915,"d":19.0167},{"name":"Canal St","lat":40.718092,"lon":-73.999892,"d":19.7261},{"name":"Chambers St","lat":40.713243,"lon":-74.003401,"d":20.3411},{"name":"Fulton St","lat":40.710374,"lon":-74.007582,"d":20.8246},{"name":"Broad St","lat":40.706476,"lon":-74.011056,"d":21.3477}]},{"id":"G","name":"Brooklyn-Queens Crosstown","color":"#799534","shape":[[40.746554,-73.943832],[40.741832,-73.953914],[40.74042,-73.955098],[40.738343,-73.955437],[40.729724,-73.954073],[40.722118,-73.949934],[40.7183,-73.952301],[40.705639,-73.950234],[40.700583,-73.950263],[40.690703,-73.948602],[40.690051,-73.949836],[40.686721,-73.979124],[40.689458,-73.988213],[40.679676,-73.995532],[40.676122,-73.997359],[40.674474,-73.997022],[40.672023,-73.993354],[40.669548,-73.988253],[40.668766,-73.985354],[40.664383,-73.977043],[40.663364,-73.977094],[40.658475,-73.98044],[40.655517,-73.976664],[40.65032,-73.975814],[40.648766,-73.976613],[40.646907,-73.979733],[40.644041,-73.979678]],"shapeLen":16.8045,"stations":[{"name":"Court Sq","lat":40.746554,"lon":-73.943832,"d":0},{"name":"21 St","lat":40.744065,"lon":-73.949724,"d":0.5677},{"name":"Greenpoint Av","lat":40.731352,"lon":-73.954449,"d":2.199},{"name":"Nassau Av","lat":40.724635,"lon":-73.951277,"d":2.9955},{"name":"Metropolitan Av","lat":40.712792,"lon":-73.951418,"d":4.3834},{"name":"Broadway","lat":40.706092,"lon":-73.950308,"d":5.1343},{"name":"Flushing Av","lat":40.700377,"lon":-73.950234,"d":5.7703},{"name":"Myrtle-Willoughby Avs","lat":40.694568,"lon":-73.949046,"d":6.4237},{"name":"Bedford-Nostrand Avs","lat":40.689627,"lon":-73.953522,"d":7.2959},{"name":"Classon Av","lat":40.688873,"lon":-73.96007,"d":7.8543},{"name":"Clinton-Washington Avs","lat":40.688089,"lon":-73.966839,"d":8.4316},{"name":"Fulton St","lat":40.687119,"lon":-73.975375,"d":9.1594},{"name":"Hoyt-Schermerhorn Sts","lat":40.688484,"lon":-73.985001,"d":10.0115},{"name":"Bergen St","lat":40.686145,"lon":-73.990862,"d":10.7338},{"name":"Carroll St","lat":40.680303,"lon":-73.995048,"d":11.4729},{"name":"Smith-9 Sts","lat":40.67358,"lon":-73.995959,"d":12.2963},{"name":"4 Av-9 St","lat":40.670272,"lon":-73.989779,"d":12.9345},{"name":"7 Av","lat":40.666271,"lon":-73.980305,"d":13.8538},{"name":"15 St-Prospect Park","lat":40.660365,"lon":-73.979493,"d":14.7021},{"name":"Fort Hamilton Pkwy","lat":40.650782,"lon":-73.975776,"d":15.9151},{"name":"Church Av","lat":40.644041,"lon":-73.979678,"d":16.8045}]},{"id":"7","name":"Flushing Local","color":"#9A38A1","shape":[[40.7596,-73.83003],[40.750059,-73.861078],[40.745335,-73.907219],[40.742974,-73.9166],[40.744845,-73.932856],[40.749526,-73.938136],[40.751193,-73.942138],[40.748151,-73.944896],[40.745825,-73.945626],[40.743716,-73.944796],[40.741971,-73.950059],[40.74334,-73.956802],[40.753333,-73.980686],[40.754227,-73.983111],[40.754242,-73.984755],[40.759382,-73.997057],[40.759123,-73.99935],[40.755882,-74.00191]],"shapeLen":16.4875,"stations":[{"name":"Flushing-Main St","lat":40.7596,"lon":-73.83003,"d":0},{"name":"Mets-Willets Point","lat":40.754622,"lon":-73.845625,"d":1.4253},{"name":"111 St","lat":40.75173,"lon":-73.855334,"d":2.304},{"name":"103 St-Corona Plaza","lat":40.749865,"lon":-73.8627,"d":2.9605},{"name":"Junction Blvd","lat":40.749145,"lon":-73.869527,"d":3.5411},{"name":"90 St-Elmhurst Av","lat":40.748408,"lon":-73.876613,"d":4.1436},{"name":"82 St-Jackson Hts","lat":40.747659,"lon":-73.883697,"d":4.7462},{"name":"74 St-Broadway","lat":40.746848,"lon":-73.891394,"d":5.4008},{"name":"69 St","lat":40.746325,"lon":-73.896403,"d":5.8268},{"name":"61 St-Woodside","lat":40.74563,"lon":-73.902984,"d":6.3865},{"name":"52 St","lat":40.744149,"lon":-73.912549,"d":7.2122},{"name":"46 St-Bliss St","lat":40.743132,"lon":-73.918435,"d":7.7327},{"name":"40 St-Lowery St","lat":40.743781,"lon":-73.924016,"d":8.2084},{"name":"33 St-Rawson St","lat":40.744587,"lon":-73.930997,"d":8.8033},{"name":"Queensboro Plaza","lat":40.750582,"lon":-73.940202,"d":9.8562},{"name":"Court Sq","lat":40.747023,"lon":-73.945264,"d":10.5714},{"name":"Hunters Point Av","lat":40.742216,"lon":-73.948916,"d":11.3376},{"name":"Vernon Blvd-Jackson Av","lat":40.742626,"lon":-73.953581,"d":11.7422},{"name":"Grand Central-42 St","lat":40.751431,"lon":-73.976041,"d":13.8785},{"name":"5 Av","lat":40.753821,"lon":-73.981963,"d":14.4437},{"name":"Times Sq-42 St","lat":40.755477,"lon":-73.987691,"d":14.9718},{"name":"34 St-Hudson Yards","lat":40.755882,"lon":-74.00191,"d":16.4875}]},{"id":"7X","name":"Flushing Express","color":"#9A38A1","shape":[[40.755882,-74.00191],[40.759123,-73.99935],[40.759382,-73.997057],[40.754242,-73.984755],[40.754227,-73.983111],[40.753333,-73.980686],[40.74334,-73.956802],[40.741971,-73.950059],[40.743716,-73.944796],[40.745825,-73.945626],[40.748151,-73.944896],[40.751193,-73.942138],[40.749526,-73.938136],[40.744845,-73.932856],[40.742974,-73.9166],[40.745335,-73.907219],[40.750059,-73.861078],[40.7596,-73.83003]],"shapeLen":16.4875,"stations":[{"name":"34 St-Hudson Yards","lat":40.755882,"lon":-74.00191,"d":0},{"name":"Times Sq-42 St","lat":40.755477,"lon":-73.987691,"d":1.5157},{"name":"5 Av","lat":40.753821,"lon":-73.981963,"d":2.0438},{"name":"Grand Central-42 St","lat":40.751431,"lon":-73.976041,"d":2.609},{"name":"Vernon Blvd-Jackson Av","lat":40.742626,"lon":-73.953581,"d":4.7453},{"name":"Hunters Point Av","lat":40.742216,"lon":-73.948916,"d":5.1499},{"name":"Court Sq","lat":40.747023,"lon":-73.945264,"d":5.9161},{"name":"Queensboro Plaza","lat":40.750582,"lon":-73.940202,"d":6.6313},{"name":"33 St-Rawson St","lat":40.744587,"lon":-73.930997,"d":7.6842},{"name":"40 St-Lowery St","lat":40.743781,"lon":-73.924016,"d":8.2791},{"name":"46 St-Bliss St","lat":40.743132,"lon":-73.918435,"d":8.7548},{"name":"52 St","lat":40.744149,"lon":-73.912549,"d":9.2753},{"name":"61 St-Woodside","lat":40.74563,"lon":-73.902984,"d":10.101},{"name":"69 St","lat":40.746325,"lon":-73.896403,"d":10.6607},{"name":"74 St-Broadway","lat":40.746848,"lon":-73.891394,"d":11.0867},{"name":"Junction Blvd","lat":40.749145,"lon":-73.869527,"d":12.9464},{"name":"Mets-Willets Point","lat":40.754622,"lon":-73.845625,"d":15.0622},{"name":"Flushing-Main St","lat":40.7596,"lon":-73.83003,"d":16.4875}]},{"id":"L","name":"14 St-Canarsie Local","color":"#7C858C","shape":[[40.739777,-74.002578],[40.727259,-73.972924],[40.714221,-73.951872],[40.714632,-73.942131],[40.711577,-73.940527],[40.706324,-73.939608],[40.705604,-73.939053],[40.707357,-73.924248],[40.693816,-73.901221],[40.692234,-73.900993],[40.687564,-73.905021],[40.684707,-73.905764],[40.677614,-73.902859],[40.674137,-73.903283],[40.653899,-73.898006],[40.652568,-73.898278],[40.646654,-73.90185]],"shapeLen":16.2434,"stations":[{"name":"8 Av","lat":40.739777,"lon":-74.002578,"d":0},{"name":"6 Av","lat":40.737335,"lon":-73.996786,"d":0.5584},{"name":"14 St-Union Sq","lat":40.734789,"lon":-73.99073,"d":1.142},{"name":"3 Av","lat":40.732849,"lon":-73.986122,"d":1.5861},{"name":"1 Av","lat":40.730953,"lon":-73.981628,"d":2.0195},{"name":"Bedford Av","lat":40.717304,"lon":-73.956872,"d":4.6081},{"name":"Lorimer St","lat":40.714063,"lon":-73.950275,"d":5.2847},{"name":"Graham Av","lat":40.714565,"lon":-73.944053,"d":5.8114},{"name":"Grand St","lat":40.711926,"lon":-73.94067,"d":6.2987},{"name":"Montrose Av","lat":40.707739,"lon":-73.93985,"d":6.7698},{"name":"Morgan Av","lat":40.706152,"lon":-73.933147,"d":7.5224},{"name":"Jefferson St","lat":40.706607,"lon":-73.922913,"d":8.4242},{"name":"DeKalb Av","lat":40.703811,"lon":-73.918425,"d":8.9137},{"name":"Myrtle-Wyckoff Avs","lat":40.699814,"lon":-73.911586,"d":9.6417},{"name":"Halsey St","lat":40.695602,"lon":-73.904084,"d":10.4285},{"name":"Wilson Av","lat":40.688764,"lon":-73.904046,"d":11.3817},{"name":"Bushwick Av-Aberdeen St","lat":40.682829,"lon":-73.905249,"d":12.0744},{"name":"Broadway Junction","lat":40.678856,"lon":-73.90324,"d":12.5466},{"name":"Atlantic Av","lat":40.675345,"lon":-73.903097,"d":12.9411},{"name":"Sutter Av","lat":40.669367,"lon":-73.901975,"d":13.618},{"name":"Livonia Av","lat":40.664038,"lon":-73.900571,"d":14.2223},{"name":"New Lots Av","lat":40.658733,"lon":-73.899232,"d":14.8229},{"name":"East 105 St","lat":40.650573,"lon":-73.899485,"d":15.7641},{"name":"Canarsie-Rockaway Pkwy","lat":40.646654,"lon":-73.90185,"d":16.2434}]},{"id":"W","name":"Broadway Local","color":"#F6BC26","shape":[[40.775036,-73.912034],[40.767889,-73.920542],[40.751841,-73.933601],[40.749172,-73.937018],[40.764799,-73.972347],[40.764787,-73.974097],[40.766577,-73.978379],[40.766507,-73.979239],[40.756569,-73.986154],[40.752127,-73.98751],[40.731736,-73.991482],[40.711676,-74.008353],[40.711537,-74.010465],[40.706406,-74.014028],[40.703087,-74.012994]],"shapeLen":15.5535,"stations":[{"name":"Astoria-Ditmars Blvd","lat":40.775036,"lon":-73.912034,"d":0},{"name":"Astoria Blvd","lat":40.770258,"lon":-73.917843,"d":0.7221},{"name":"30 Av","lat":40.766779,"lon":-73.921479,"d":1.2165},{"name":"Broadway","lat":40.76182,"lon":-73.925508,"d":1.8639},{"name":"36 Av","lat":40.756804,"lon":-73.929575,"d":2.5185},{"name":"39 Av-Dutch Kills","lat":40.752882,"lon":-73.932755,"d":3.0303},{"name":"Queensboro Plaza","lat":40.750582,"lon":-73.940202,"d":3.8903},{"name":"Lexington Av/59 St","lat":40.76266,"lon":-73.967258,"d":6.5355},{"name":"5 Av/59 St","lat":40.764811,"lon":-73.973347,"d":7.1097},{"name":"57 St-7 Av","lat":40.764664,"lon":-73.980658,"d":7.8947},{"name":"49 St","lat":40.759901,"lon":-73.984139,"d":8.4999},{"name":"Times Sq-42 St","lat":40.754672,"lon":-73.986754,"d":9.1237},{"name":"34 St-Herald Sq","lat":40.749567,"lon":-73.98795,"d":9.7008},{"name":"28 St","lat":40.745494,"lon":-73.988691,"d":10.1579},{"name":"23 St","lat":40.741303,"lon":-73.989344,"d":10.627},{"name":"14 St-Union Sq","lat":40.735736,"lon":-73.990568,"d":11.2544},{"name":"8 St-NYU","lat":40.730328,"lon":-73.992629,"d":11.8897},{"name":"Prince St","lat":40.724329,"lon":-73.997702,"d":12.6819},{"name":"Canal St","lat":40.719527,"lon":-74.001775,"d":13.3167},{"name":"City Hall","lat":40.713282,"lon":-74.006978,"d":14.138},{"name":"Cortlandt St","lat":40.710668,"lon":-74.011029,"d":14.6372},{"name":"Rector St","lat":40.70722,"lon":-74.013342,"d":15.0673},{"name":"Whitehall St-South Ferry","lat":40.703087,"lon":-74.012994,"d":15.5535},{"name":"86 St","lat":40.592721,"lon":-73.97823,"d":15.5535},{"name":"Avenue U","lat":40.597473,"lon":-73.979137,"d":15.5535},{"name":"Kings Hwy","lat":40.603923,"lon":-73.980353,"d":15.5535},{"name":"Bay Pkwy","lat":40.611815,"lon":-73.981848,"d":15.5535},{"name":"20 Av","lat":40.61741,"lon":-73.985026,"d":15.5535},{"name":"18 Av","lat":40.620671,"lon":-73.990414,"d":15.5535},{"name":"New Utrecht Av","lat":40.624842,"lon":-73.996353,"d":15.5535},{"name":"Fort Hamilton Pkwy","lat":40.631386,"lon":-74.005351,"d":15.5535},{"name":"8 Av","lat":40.635064,"lon":-74.011719,"d":15.5535},{"name":"59 St","lat":40.641362,"lon":-74.017881,"d":15.5535},{"name":"53 St","lat":40.645069,"lon":-74.014034,"d":15.5535},{"name":"45 St","lat":40.648939,"lon":-74.010006,"d":15.5535},{"name":"36 St","lat":40.655144,"lon":-74.003549,"d":15.5535},{"name":"25 St","lat":40.660397,"lon":-73.998091,"d":15.5535},{"name":"Prospect Av","lat":40.665414,"lon":-73.992872,"d":15.5535},{"name":"4 Av-9 St","lat":40.670847,"lon":-73.988302,"d":15.5535},{"name":"Union St","lat":40.677316,"lon":-73.98311,"d":15.5535},{"name":"Atlantic Av-Barclays Ctr","lat":40.683666,"lon":-73.97881,"d":15.5535},{"name":"DeKalb Av","lat":40.690635,"lon":-73.981824,"d":15.5535},{"name":"Jay St-MetroTech","lat":40.69218,"lon":-73.985942,"d":15.5535},{"name":"Court St","lat":40.6941,"lon":-73.991777,"d":15.5535},{"name":"9 Av","lat":40.646292,"lon":-73.994324,"d":15.5535},{"name":"62 St","lat":40.626472,"lon":-73.996895,"d":15.5535}]},{"id":"S-MTANYCT-H","name":"Rockaway Park Shuttle","color":"#7C858C","shape":[[40.608382,-73.815925],[40.593127,-73.809421],[40.591756,-73.809269],[40.590407,-73.809841],[40.588745,-73.811874],[40.585014,-73.82133],[40.580903,-73.835592]],"shapeLen":4.5338,"stations":[{"name":"Broad Channel","lat":40.608382,"lon":-73.815925,"d":0},{"name":"Beach 90 St","lat":40.588034,"lon":-73.813641,"d":2.5146},{"name":"Beach 98 St","lat":40.585307,"lon":-73.820558,"d":3.1727},{"name":"Beach 105 St","lat":40.583209,"lon":-73.827559,"d":3.8086},{"name":"Rockaway Park-Beach 116 St","lat":40.580903,"lon":-73.835592,"d":4.5338}]},{"id":"S-MTANYCT","name":"Franklin Avenue Shuttle","color":"#7C858C","shape":[[40.680596,-73.955827],[40.661614,-73.962246]],"shapeLen":2.179,"stations":[{"name":"Franklin Av","lat":40.680596,"lon":-73.955827,"d":0},{"name":"Park Pl","lat":40.674772,"lon":-73.957624,"d":0.6649},{"name":"Botanic Garden","lat":40.670343,"lon":-73.959245,"d":1.1759},{"name":"Prospect Park","lat":40.661614,"lon":-73.962246,"d":2.179}]},{"id":"S","name":"42 St Shuttle","color":"#7C858C","shape":[[40.752769,-73.979189],[40.755983,-73.986229]],"shapeLen":0.6924,"stations":[{"name":"Grand Central-42 St","lat":40.752769,"lon":-73.979189,"d":0},{"name":"Times Sq-42 St","lat":40.755983,"lon":-73.986229,"d":0.6924}]}]}