{"system":"瑞士景觀鐵道","date":"20260715","source_notes":"時刻表來源:opentransportdata.swiss 全國 GTFS(免費/免註冊/可商用,需標註來源 \"opentransportdata.swiss\";檔案 gtfs_fp2026,服務日 20260715);官方不提供 shapes.txt,線形自建:OpenStreetMap railway=narrow_gauge 路網(© OpenStreetMap contributors, ODbL,operator=RhB/MGB 優先,缺口退全 narrow_gauge 圖)跑 Dijkstra 取真實軌跡;每路線取當日聯合停靠站最遠兩端點(跨連通分量如 Brig 折返則分段拼接),Douglas-Peucker 簡化(eps=0.03km)。","types":[{"key":"Rhätische Bahn","color":"#D9291C"},{"key":"Matterhorn Gotthard Bahn","color":"#1B3668"}],"trains":[{"train":"R11-1606","typeName":"Rhätische Bahn","carName":"Rhätische Bahn","color":"#D9291C","stops":[{"name":"Filisur","lat":46.675344,"lon":9.682096,"order":1,"arrSec":57960,"depSec":57960,"stop":true},{"name":"Davos Wiesen","lat":46.695649,"lon":9.716052,"order":2,"arrSec":58440,"depSec":58500,"stop":true},{"name":"Davos Monstein","lat":46.715898,"lon":9.759845,"order":3,"arrSec":58980,"depSec":59040,"stop":true},{"name":"Davos Glaris","lat":46.745293,"lon":9.779815,"order":4,"arrSec":59400,"depSec":59940,"stop":true},{"name":"Davos Frauenkirch","lat":46.76671,"lon":9.799335,"order":5,"arrSec":60180,"depSec":60240,"stop":true},{"name":"Davos Platz","lat":46.791576,"lon":9.821218,"order":6,"arrSec":60600,"depSec":60600,"stop":true}]},{"train":"R11-1106","typeName":"Rhätische Bahn","carName":"Rhätische Bahn","color":"#D9291C","stops":[{"name":"Filisur","lat":46.675344,"lon":9.682096,"order":1,"arrSec":39960,"depSec":39960,"stop":true},{"name":"Davos Wiesen","lat":46.695649,"lon":9.716052,"order":2,"arrSec":40440,"depSec":40500,"stop":true},{"name":"Davos Monstein","lat":46.715898,"lon":9.759845,"order":3,"arrSec":40980,"depSec":41040,"stop":true},{"name":"Davos Glaris","lat":46.745293,"lon":9.779815,"order":4,"arrSec":41400,"depSec":41940,"stop":true},{"name":"Davos Frauenkirch","lat":46.76671,"lon":9.799335,"order":5,"arrSec":42180,"depSec":42240,"stop":true},{"name":"Davos Platz","lat":46.791576,"lon":9.821218,"order":6,"arrSec":42600,"depSec":42600,"stop":true}]},{"train":"R11-0847","typeName":"Rhätische Bahn","carName":"Rhätische Bahn","color":"#D9291C","stops":[{"name":"Davos Platz","lat":46.791576,"lon":9.821218,"order":1,"arrSec":31620,"depSec":31620,"stop":true},{"name":"Davos Frauenkirch","lat":46.76671,"lon":9.799335,"order":2,"arrSec":31800,"depSec":31860,"stop":true},{"name":"Davos Glaris","lat":46.745293,"lon":9.779815,"order":3,"arrSec":32100,"depSec":32100,"stop":true},{"name":"Davos Monstein","lat":46.715898,"lon":9.759845,"order":4,"arrSec":32400,"depSec":32400,"stop":true},{"name":"Davos Wiesen","lat":46.695649,"lon":9.716052,"order":5,"arrSec":32820,"depSec":32940,"stop":true},{"name":"Filisur","lat":46.675344,"lon":9.682096,"order":6,"arrSec":33300,"depSec":33300,"stop":true}]},{"train":"R11-1518","typeName":"Rhätische Bahn","carName":"Rhätische Bahn","color":"#D9291C","stops":[{"name":"Davos Platz","lat":46.791576,"lon":9.821218,"order":1,"arrSec":55080,"depSec":55080,"stop":true},{"name":"Davos Frauenkirch","lat":46.76671,"lon":9.799335,"order":2,"arrSec":55380,"depSec":55440,"stop":true},{"name":"Davos Glaris","lat":46.745293,"lon":9.779815,"order":3,"arrSec":55740,"depSec":55800,"stop":true},{"name":"Davos Monstein","lat":46.715898,"lon":9.759845,"order":4,"arrSec":56160,"depSec":56220,"stop":true},{"name":"Davos Wiesen","lat":46.695649,"lon":9.716052,"order":5,"arrSec":56700,"depSec":56760,"stop":true},{"name":"Filisur","lat":46.675344,"lon":9.682096,"order":6,"arrSec":57180,"depSec":57180,"stop":true}]},{"train":"R11-1018","typeName":"Rhätische Bahn","carName":"Rhätische Bahn","color":"#D9291C","stops":[{"name":"Davos Platz","lat":46.791576,"lon":9.821218,"order":1,"arrSec":37080,"depSec":37080,"stop":true},{"name":"Davos Frauenkirch","lat":46.76671,"lon":9.799335,"order":2,"arrSec":37380,"depSec":37440,"stop":true},{"name":"Davos Glaris","lat":46.745293,"lon":9.779815,"order":3,"arrSec":37740,"depSec":37800,"stop":true},{"name":"Davos Monstein","lat":46.715898,"lon":9.759845,"order":4,"arrSec":38160,"depSec":38220,"stop":true},{"name":"Davos Wiesen","lat":46.695649,"lon":9.716052,"order":5,"arrSec":38700,"depSec":38760,"stop":true},{"name":"Filisur","lat":46.675344,"lon":9.682096,"order":6,"arrSec":39180,"depSec":39180,"stop":true}]},{"train":"R11-1743","typeName":"Rhätische Bahn","carName":"Rhätische Bahn","color":"#D9291C","stops":[{"name":"Filisur","lat":46.675344,"lon":9.682096,"order":1,"arrSec":63780,"depSec":63780,"stop":true},{"name":"Davos Wiesen","lat":46.695649,"lon":9.716052,"order":2,"arrSec":64080,"depSec":64200,"stop":true},{"name":"Davos Monstein","lat":46.715898,"lon":9.759845,"order":3,"arrSec":64560,"depSec":64560,"stop":true},{"name":"Davos Glaris","lat":46.745293,"lon":9.779815,"order":4,"arrSec":64860,"depSec":64920,"stop":true},{"name":"Davos Frauenkirch","lat":46.76671,"lon":9.799335,"order":5,"arrSec":65160,"depSec":65160,"stop":true},{"name":"Davos Platz","lat":46.791576,"lon":9.821218,"order":6,"arrSec":65400,"depSec":65400,"stop":true}]},{"train":"RE13-1920","typeName":"Rhätische Bahn","carName":"Rhätische Bahn","color":"#D9291C","stops":[{"name":"Landquart","lat":46.966784,"lon":9.554598,"order":1,"arrSec":69600,"depSec":69600,"stop":true},{"name":"Schiers","lat":46.967936,"lon":9.687818,"order":2,"arrSec":70200,"depSec":70260,"stop":true},{"name":"Küblis","lat":46.91424,"lon":9.771595,"order":3,"arrSec":70800,"depSec":70860,"stop":true},{"name":"Saas im Prättigau","lat":46.907403,"lon":9.810366,"order":4,"arrSec":71220,"depSec":71220,"stop":true},{"name":"Klosters Platz","lat":46.869266,"lon":9.880678,"order":5,"arrSec":71880,"depSec":71880,"stop":true}]},{"train":"RE13-1400","typeName":"Rhätische Bahn","carName":"Rhätische Bahn","color":"#D9291C","stops":[{"name":"Klosters Platz","lat":46.869395,"lon":9.880732,"order":1,"arrSec":50400,"depSec":50400,"stop":true},{"name":"Saas im Prättigau","lat":46.907403,"lon":9.810366,"order":2,"arrSec":51060,"depSec":51060,"stop":true},{"name":"Küblis","lat":46.91424,"lon":9.771595,"order":3,"arrSec":51420,"depSec":51480,"stop":true},{"name":"Schiers","lat":46.967832,"lon":9.687827,"order":4,"arrSec":52080,"depSec":52140,"stop":true},{"name":"Landquart","lat":46.966784,"lon":9.554598,"order":5,"arrSec":52740,"depSec":52740,"stop":true}]},{"train":"RE13-1500","typeName":"Rhätische Bahn","carName":"Rhätische Bahn","color":"#D9291C","stops":[{"name":"Klosters Platz","lat":46.869395,"lon":9.880732,"order":1,"arrSec":54000,"depSec":54000,"stop":true},{"name":"Saas im Prättigau","lat":46.907403,"lon":9.810366,"order":2,"arrSec":54660,"depSec":54660,"stop":true},{"name":"Küblis","lat":46.91424,"lon":9.771595,"order":3,"arrSec":55020,"depSec":55080,"stop":true},{"name":"Schiers","lat":46.967832,"lon":9.687827,"order":4,"arrSec":55680,"depSec":55740,"stop":true},{"name":"Landquart","lat":46.966784,"lon":9.554598,"order":5,"arrSec":56340,"depSec":56340,"stop":true}]},{"train":"RE13-1600","typeName":"Rhätische Bahn","carName":"Rhätische Bahn","color":"#D9291C","stops":[{"name":"Klosters Platz","lat":46.869395,"lon":9.880732,"order":1,"arrSec":57600,"depSec":57600,"stop":true},{"name":"Saas im Prättigau","lat":46.907403,"lon":9.810366,"order":2,"arrSec":58260,"depSec":58260,"stop":true},{"name":"Küblis","lat":46.91424,"lon":9.771595,"order":3,"arrSec":58620,"depSec":58680,"stop":true},{"name":"Schiers","lat":46.967832,"lon":9.687827,"order":4,"arrSec":59280,"depSec":59340,"stop":true},{"name":"Landquart","lat":46.966784,"lon":9.554598,"order":5,"arrSec":59940,"depSec":59940,"stop":true}]},{"train":"RE13-1900","typeName":"Rhätische Bahn","carName":"Rhätische Bahn","color":"#D9291C","stops":[{"name":"Klosters Platz","lat":46.869395,"lon":9.880732,"order":1,"arrSec":68400,"depSec":68400,"stop":true},{"name":"Saas im Prättigau","lat":46.907403,"lon":9.810366,"order":2,"arrSec":69060,"depSec":69060,"stop":true},{"name":"Küblis","lat":46.91424,"lon":9.771595,"order":3,"arrSec":69420,"depSec":69480,"stop":true},{"name":"Schiers","lat":46.967832,"lon":9.687827,"order":4,"arrSec":70080,"depSec":70140,"stop":true},{"name":"Landquart","lat":46.966784,"lon":9.554598,"order":5,"arrSec":70740,"depSec":70740,"stop":true}]},{"train":"RE13-1000","typeName":"Rhätische Bahn","carName":"Rhätische Bahn","color":"#D9291C","stops":[{"name":"Klosters Platz","lat":46.869395,"lon":9.880732,"order":1,"arrSec":36000,"depSec":36000,"stop":true},{"name":"Saas im Prättigau","lat":46.907403,"lon":9.810366,"order":2,"arrSec":36660,"depSec":36660,"stop":true},{"name":"Küblis","lat":46.91424,"lon":9.771595,"order":3,"arrSec":37020,"depSec":37080,"stop":true},{"name":"Schiers","lat":46.967832,"lon":9.687827,"order":4,"arrSec":37680,"depSec":37740,"stop":true},{"name":"Landquart","lat":46.966784,"lon":9.554598,"order":5,"arrSec":38340,"depSec":38340,"stop":true}]},{"train":"RE13-1700","typeName":"Rhätische Bahn","carName":"Rhätische Bahn","color":"#D9291C","stops":[{"name":"Klosters Platz","lat":46.869395,"lon":9.880732,"order":1,"arrSec":61200,"depSec":61200,"stop":true},{"name":"Saas im Prättigau","lat":46.907403,"lon":9.810366,"order":2,"arrSec":61860,"depSec":61860,"stop":true},{"name":"Küblis","lat":46.91424,"lon":9.771595,"order":3,"arrSec":62220,"depSec":62280,"stop":true},{"name":"Schiers","lat":46.967832,"lon":9.687827,"order":4,"arrSec":62880,"depSec":62940,"stop":true},{"name":"Landquart","lat":46.966784,"lon":9.554598,"order":5,"arrSec":63540,"depSec":63540,"stop":true}]},{"train":"RE13-1100","typeName":"Rhätische Bahn","carName":"Rhätische Bahn","color":"#D9291C","stops":[{"name":"Klosters Platz","lat":46.869395,"lon":9.880732,"order":1,"arrSec":39600,"depSec":39600,"stop":true},{"name":"Saas im Prättigau","lat":46.907403,"lon":9.810366,"order":2,"arrSec":40260,"depSec":40260,"stop":true},{"name":"Küblis","lat":46.91424,"lon":9.771595,"order":3,"arrSec":40620,"depSec":40680,"stop":true},{"name":"Schiers","lat":46.967832,"lon":9.687827,"order":4,"arrSec":41280,"depSec":41340,"stop":true},{"name":"Landquart","lat":46.966784,"lon":9.554598,"order":5,"arrSec":41940,"depSec":41940,"stop":true}]},{"train":"RE13-1200","typeName":"Rhätische Bahn","carName":"Rhätische Bahn","color":"#D9291C","stops":[{"name":"Klosters Platz","lat":46.869395,"lon":9.880732,"order":1,"arrSec":43200,"depSec":43200,"stop":true},{"name":"Saas im Prättigau","lat":46.907403,"lon":9.810366,"order":2,"arrSec":43860,"depSec":43860,"stop":true},{"name":"Küblis","lat":46.91424,"lon":9.771595,"order":3,"arrSec":44220,"depSec":44280,"stop":true},{"name":"Schiers","lat":46.967832,"lon":9.687827,"order":4,"arrSec":44880,"depSec":44940,"stop":true},{"name":"Landquart","lat":46.966784,"lon":9.554598,"order":5,"arrSec":45540,"depSec":45540,"stop":true}]},{"train":"RE13-1800","typeName":"Rhätische Bahn","carName":"Rhätische Bahn","color":"#D9291C","stops":[{"name":"Klosters Platz","lat":46.869395,"lon":9.880732,"order":1,"arrSec":64800,"depSec":64800,"stop":true},{"name":"Saas im Prättigau","lat":46.907403,"lon":9.810366,"order":2,"arrSec":65460,"depSec":65460,"stop":true},{"name":"Küblis","lat":46.91424,"lon":9.771595,"order":3,"arrSec":65820,"depSec":65880,"stop":true},{"name":"Schiers","lat":46.967832,"lon":9.687827,"order":4,"arrSec":66480,"depSec":66540,"stop":true},{"name":"Landquart","lat":46.966784,"lon":9.554598,"order":5,"arrSec":67140,"depSec":67140,"stop":true}]},{"train":"RE13-1300","typeName":"Rhätische Bahn","carName":"Rhätische Bahn","color":"#D9291C","stops":[{"name":"Klosters Platz","lat":46.869395,"lon":9.880732,"order":1,"arrSec":46800,"depSec":46800,"stop":true},{"name":"Saas im Prättigau","lat":46.907403,"lon":9.810366,"order":2,"arrSec":47460,"depSec":47460,"stop":true},{"name":"Küblis","lat":46.91424,"lon":9.771595,"order":3,"arrSec":47820,"depSec":47880,"stop":true},{"name":"Schiers","lat":46.967832,"lon":9.687827,"order":4,"arrSec":48480,"depSec":48540,"stop":true},{"name":"Landquart","lat":46.966784,"lon":9.554598,"order":5,"arrSec":49140,"depSec":49140,"stop":true}]},{"train":"RE13-0800","typeName":"Rhätische Bahn","carName":"Rhätische Bahn","color":"#D9291C","stops":[{"name":"Klosters Platz","lat":46.869395,"lon":9.880732,"order":1,"arrSec":28800,"depSec":28800,"stop":true},{"name":"Saas im Prättigau","lat":46.907403,"lon":9.810366,"order":2,"arrSec":29460,"depSec":29460,"stop":true},{"name":"Küblis","lat":46.91424,"lon":9.771595,"order":3,"arrSec":29820,"depSec":29880,"stop":true},{"name":"Schiers","lat":46.967832,"lon":9.687827,"order":4,"arrSec":30480,"depSec":30540,"stop":true},{"name":"Landquart","lat":46.966784,"lon":9.554598,"order":5,"arrSec":31140,"depSec":31140,"stop":true}]},{"train":"RE13-0900","typeName":"Rhätische Bahn","carName":"Rhätische Bahn","color":"#D9291C","stops":[{"name":"Klosters Platz","lat":46.869395,"lon":9.880732,"order":1,"arrSec":32400,"depSec":32400,"stop":true},{"name":"Saas im Prättigau","lat":46.907403,"lon":9.810366,"order":2,"arrSec":33060,"depSec":33060,"stop":true},{"name":"Küblis","lat":46.91424,"lon":9.771595,"order":3,"arrSec":33420,"depSec":33480,"stop":true},{"name":"Schiers","lat":46.967832,"lon":9.687827,"order":4,"arrSec":34080,"depSec":34140,"stop":true},{"name":"Landquart","lat":46.966784,"lon":9.554598,"order":5,"arrSec":34740,"depSec":34740,"stop":true}]},{"train":"RE13-0700","typeName":"Rhätische Bahn","carName":"Rhätische Bahn","color":"#D9291C","stops":[{"name":"Klosters Platz","lat":46.869395,"lon":9.880732,"order":1,"arrSec":25200,"depSec":25200,"stop":true},{"name":"Klosters Dorf","lat":46.883635,"lon":9.875117,"order":2,"arrSec":25320,"depSec":25380,"stop":true},{"name":"Saas im Prättigau","lat":46.907403,"lon":9.810366,"order":3,"arrSec":25860,"depSec":25860,"stop":true},{"name":"Küblis","lat":46.91424,"lon":9.771595,"order":4,"arrSec":26220,"depSec":26220,"stop":true},{"name":"Jenaz","lat":46.929597,"lon":9.718568,"order":5,"arrSec":26580,"depSec":26580,"stop":true},{"name":"Furna","lat":46.939552,"lon":9.708983,"order":6,"arrSec":26700,"depSec":26700,"stop":true},{"name":"Schiers","lat":46.967832,"lon":9.687827,"order":7,"arrSec":26940,"depSec":27000,"stop":true},{"name":"Landquart","lat":46.966784,"lon":9.554598,"order":8,"arrSec":27600,"depSec":27600,"stop":true}]},{"train":"RE13-2000","typeName":"Rhätische Bahn","carName":"Rhätische Bahn","color":"#D9291C","stops":[{"name":"Klosters Platz","lat":46.869395,"lon":9.880732,"order":1,"arrSec":72000,"depSec":72000,"stop":true},{"name":"Klosters Dorf","lat":46.883635,"lon":9.875117,"order":2,"arrSec":72120,"depSec":72180,"stop":true},{"name":"Saas im Prättigau","lat":46.907403,"lon":9.810366,"order":3,"arrSec":72660,"depSec":72660,"stop":true},{"name":"Küblis","lat":46.91424,"lon":9.771595,"order":4,"arrSec":73020,"depSec":73080,"stop":true},{"name":"Schiers","lat":46.967832,"lon":9.687827,"order":5,"arrSec":73680,"depSec":73740,"stop":true},{"name":"Grüsch","lat":46.980514,"lon":9.645849,"order":6,"arrSec":73920,"depSec":73920,"stop":true},{"name":"Seewis-Pardisla","lat":46.976977,"lon":9.632365,"order":7,"arrSec":74040,"depSec":74040,"stop":true},{"name":"Malans GR","lat":46.977645,"lon":9.573831,"order":8,"arrSec":74340,"depSec":74340,"stop":true},{"name":"Landquart","lat":46.966778,"lon":9.554481,"order":9,"arrSec":74580,"depSec":74580,"stop":true}]},{"train":"RE13-1320","typeName":"Rhätische Bahn","carName":"Rhätische Bahn","color":"#D9291C","stops":[{"name":"Landquart","lat":46.966784,"lon":9.554598,"order":1,"arrSec":48000,"depSec":48000,"stop":true},{"name":"Schiers","lat":46.967936,"lon":9.687818,"order":2,"arrSec":48600,"depSec":48660,"stop":true},{"name":"Küblis","lat":46.91424,"lon":9.771595,"order":3,"arrSec":49200,"depSec":49260,"stop":true},{"name":"Saas im Prättigau","lat":46.907403,"lon":9.810366,"order":4,"arrSec":49620,"depSec":49620,"stop":true},{"name":"Klosters Platz","lat":46.869266,"lon":9.880678,"order":5,"arrSec":50280,"depSec":50280,"stop":true}]},{"train":"RE13-1620","typeName":"Rhätische Bahn","carName":"Rhätische Bahn","color":"#D9291C","stops":[{"name":"Landquart","lat":46.966784,"lon":9.554598,"order":1,"arrSec":58800,"depSec":58800,"stop":true},{"name":"Schiers","lat":46.967936,"lon":9.687818,"order":2,"arrSec":59400,"depSec":59460,"stop":true},{"name":"Küblis","lat":46.91424,"lon":9.771595,"order":3,"arrSec":60000,"depSec":60060,"stop":true},{"name":"Saas im Prättigau","lat":46.907403,"lon":9.810366,"order":4,"arrSec":60420,"depSec":60420,"stop":true},{"name":"Klosters Platz","lat":46.869266,"lon":9.880678,"order":5,"arrSec":61080,"depSec":61080,"stop":true}]},{"train":"RE13-1120","typeName":"Rhätische Bahn","carName":"Rhätische Bahn","color":"#D9291C","stops":[{"name":"Landquart","lat":46.966784,"lon":9.554598,"order":1,"arrSec":40800,"depSec":40800,"stop":true},{"name":"Schiers","lat":46.967936,"lon":9.687818,"order":2,"arrSec":41400,"depSec":41460,"stop":true},{"name":"Küblis","lat":46.91424,"lon":9.771595,"order":3,"arrSec":42000,"depSec":42060,"stop":true},{"name":"Saas im Prättigau","lat":46.907403,"lon":9.810366,"order":4,"arrSec":42420,"depSec":42420,"stop":true},{"name":"Klosters Platz","lat":46.869266,"lon":9.880678,"order":5,"arrSec":43080,"depSec":43080,"stop":true}]},{"train":"RE13-0920","typeName":"Rhätische Bahn","carName":"Rhätische Bahn","color":"#D9291C","stops":[{"name":"Landquart","lat":46.966784,"lon":9.554598,"order":1,"arrSec":33600,"depSec":33600,"stop":true},{"name":"Schiers","lat":46.967936,"lon":9.687818,"order":2,"arrSec":34200,"depSec":34260,"stop":true},{"name":"Küblis","lat":46.91424,"lon":9.771595,"order":3,"arrSec":34800,"depSec":34860,"stop":true},{"name":"Saas im Prättigau","lat":46.907403,"lon":9.810366,"order":4,"arrSec":35220,"depSec":35220,"stop":true},{"name":"Klosters Platz","lat":46.869266,"lon":9.880678,"order":5,"arrSec":35880,"depSec":35880,"stop":true}]},{"train":"RE13-1420","typeName":"Rhätische Bahn","carName":"Rhätische Bahn","color":"#D9291C","stops":[{"name":"Landquart","lat":46.966784,"lon":9.554598,"order":1,"arrSec":51600,"depSec":51600,"stop":true},{"name":"Schiers","lat":46.967936,"lon":9.687818,"order":2,"arrSec":52200,"depSec":52260,"stop":true},{"name":"Küblis","lat":46.91424,"lon":9.771595,"order":3,"arrSec":52800,"depSec":52860,"stop":true},{"name":"Saas im Prättigau","lat":46.907403,"lon":9.810366,"order":4,"arrSec":53220,"depSec":53220,"stop":true},{"name":"Klosters Platz","lat":46.869266,"lon":9.880678,"order":5,"arrSec":53880,"depSec":53880,"stop":true}]},{"train":"RE13-1820","typeName":"Rhätische Bahn","carName":"Rhätische Bahn","color":"#D9291C","stops":[{"name":"Landquart","lat":46.966784,"lon":9.554598,"order":1,"arrSec":66000,"depSec":66000,"stop":true},{"name":"Schiers","lat":46.967936,"lon":9.687818,"order":2,"arrSec":66600,"depSec":66660,"stop":true},{"name":"Küblis","lat":46.91424,"lon":9.771595,"order":3,"arrSec":67200,"depSec":67260,"stop":true},{"name":"Saas im Prättigau","lat":46.907403,"lon":9.810366,"order":4,"arrSec":67620,"depSec":67620,"stop":true},{"name":"Klosters Platz","lat":46.869266,"lon":9.880678,"order":5,"arrSec":68280,"depSec":68280,"stop":true}]},{"train":"RE13-1520","typeName":"Rhätische Bahn","carName":"Rhätische Bahn","color":"#D9291C","stops":[{"name":"Landquart","lat":46.966784,"lon":9.554598,"order":1,"arrSec":55200,"depSec":55200,"stop":true},{"name":"Schiers","lat":46.967936,"lon":9.687818,"order":2,"arrSec":55800,"depSec":55860,"stop":true},{"name":"Küblis","lat":46.91424,"lon":9.771595,"order":3,"arrSec":56400,"depSec":56460,"stop":true},{"name":"Saas im Prättigau","lat":46.907403,"lon":9.810366,"order":4,"arrSec":56820,"depSec":56820,"stop":true},{"name":"Klosters Platz","lat":46.869266,"lon":9.880678,"order":5,"arrSec":57480,"depSec":57480,"stop":true}]},{"train":"RE13-0720","typeName":"Rhätische Bahn","carName":"Rhätische Bahn","color":"#D9291C","stops":[{"name":"Landquart","lat":46.966784,"lon":9.554598,"order":1,"arrSec":26400,"depSec":26400,"stop":true},{"name":"Schiers","lat":46.967936,"lon":9.687818,"order":2,"arrSec":27000,"depSec":27060,"stop":true},{"name":"Küblis","lat":46.91424,"lon":9.771595,"order":3,"arrSec":27600,"depSec":27660,"stop":true},{"name":"Saas im Prättigau","lat":46.907403,"lon":9.810366,"order":4,"arrSec":28020,"depSec":28020,"stop":true},{"name":"Klosters Platz","lat":46.869266,"lon":9.880678,"order":5,"arrSec":28680,"depSec":28680,"stop":true}]},{"train":"RE13-0820","typeName":"Rhätische Bahn","carName":"Rhätische Bahn","color":"#D9291C","stops":[{"name":"Landquart","lat":46.966784,"lon":9.554598,"order":1,"arrSec":30000,"depSec":30000,"stop":true},{"name":"Schiers","lat":46.967936,"lon":9.687818,"order":2,"arrSec":30600,"depSec":30660,"stop":true},{"name":"Küblis","lat":46.91424,"lon":9.771595,"order":3,"arrSec":31200,"depSec":31260,"stop":true},{"name":"Saas im Prättigau","lat":46.907403,"lon":9.810366,"order":4,"arrSec":31620,"depSec":31620,"stop":true},{"name":"Klosters Platz","lat":46.869266,"lon":9.880678,"order":5,"arrSec":32280,"depSec":32280,"stop":true}]},{"train":"RE13-1020","typeName":"Rhätische Bahn","carName":"Rhätische Bahn","color":"#D9291C","stops":[{"name":"Landquart","lat":46.966784,"lon":9.554598,"order":1,"arrSec":37200,"depSec":37200,"stop":true},{"name":"Schiers","lat":46.967936,"lon":9.687818,"order":2,"arrSec":37800,"depSec":37860,"stop":true},{"name":"Küblis","lat":46.91424,"lon":9.771595,"order":3,"arrSec":38400,"depSec":38460,"stop":true},{"name":"Saas im Prättigau","lat":46.907403,"lon":9.810366,"order":4,"arrSec":38820,"depSec":38820,"stop":true},{"name":"Klosters Platz","lat":46.869266,"lon":9.880678,"order":5,"arrSec":39480,"depSec":39480,"stop":true}]},{"train":"RE13-1720","typeName":"Rhätische Bahn","carName":"Rhätische Bahn","color":"#D9291C","stops":[{"name":"Landquart","lat":46.966784,"lon":9.554598,"order":1,"arrSec":62400,"depSec":62400,"stop":true},{"name":"Schiers","lat":46.967936,"lon":9.687818,"order":2,"arrSec":63000,"depSec":63060,"stop":true},{"name":"Küblis","lat":46.91424,"lon":9.771595,"order":3,"arrSec":63600,"depSec":63660,"stop":true},{"name":"Saas im Prättigau","lat":46.907403,"lon":9.810366,"order":4,"arrSec":64020,"depSec":64020,"stop":true},{"name":"Klosters Platz","lat":46.869266,"lon":9.880678,"order":5,"arrSec":64680,"depSec":64680,"stop":true}]},{"train":"RE13-1220","typeName":"Rhätische Bahn","carName":"Rhätische Bahn","color":"#D9291C","stops":[{"name":"Landquart","lat":46.966784,"lon":9.554598,"order":1,"arrSec":44400,"depSec":44400,"stop":true},{"name":"Schiers","lat":46.967936,"lon":9.687818,"order":2,"arrSec":45000,"depSec":45060,"stop":true},{"name":"Küblis","lat":46.91424,"lon":9.771595,"order":3,"arrSec":45600,"depSec":45660,"stop":true},{"name":"Saas im Prättigau","lat":46.907403,"lon":9.810366,"order":4,"arrSec":46020,"depSec":46020,"stop":true},{"name":"Klosters Platz","lat":46.869266,"lon":9.880678,"order":5,"arrSec":46680,"depSec":46680,"stop":true}]},{"train":"RE13-2017","typeName":"Rhätische Bahn","carName":"Rhätische Bahn","color":"#D9291C","stops":[{"name":"Landquart","lat":46.966784,"lon":9.554598,"order":1,"arrSec":73020,"depSec":73020,"stop":true},{"name":"Malans GR","lat":46.977566,"lon":9.573867,"order":2,"arrSec":73140,"depSec":73140,"stop":true},{"name":"Seewis-Pardisla","lat":46.976977,"lon":9.632365,"order":3,"arrSec":73440,"depSec":73440,"stop":true},{"name":"Grüsch","lat":46.980514,"lon":9.645849,"order":4,"arrSec":73560,"depSec":73560,"stop":true},{"name":"Schiers","lat":46.967936,"lon":9.687818,"order":5,"arrSec":73800,"depSec":73860,"stop":true},{"name":"Küblis","lat":46.91424,"lon":9.771595,"order":6,"arrSec":74400,"depSec":74460,"stop":true},{"name":"Saas im Prättigau","lat":46.907403,"lon":9.810366,"order":7,"arrSec":74820,"depSec":74820,"stop":true},{"name":"Klosters Dorf","lat":46.88358,"lon":9.875108,"order":8,"arrSec":75300,"depSec":75300,"stop":true},{"name":"Klosters Platz","lat":46.869266,"lon":9.880678,"order":9,"arrSec":75540,"depSec":75540,"stop":true}]},{"train":"R15-0600","typeName":"Rhätische Bahn","carName":"Rhätische Bahn","color":"#D9291C","stops":[{"name":"Pontresina","lat":46.490644,"lon":9.896218,"order":1,"arrSec":21600,"depSec":21600,"stop":true},{"name":"Punt Muragl","lat":46.509795,"lon":9.881154,"order":2,"arrSec":21720,"depSec":21720,"stop":true},{"name":"Samedan","lat":46.533555,"lon":9.87341,"order":3,"arrSec":21960,"depSec":22140,"stop":true},{"name":"Bever","lat":46.549725,"lon":9.888655,"order":4,"arrSec":22260,"depSec":22260,"stop":true},{"name":"La Punt Chamues-ch","lat":46.578846,"lon":9.923905,"order":5,"arrSec":22560,"depSec":22560,"stop":true},{"name":"Madulain","lat":46.587027,"lon":9.938188,"order":6,"arrSec":22680,"depSec":22740,"stop":true},{"name":"Zuoz","lat":46.600021,"lon":9.961292,"order":7,"arrSec":22920,"depSec":22980,"stop":true},{"name":"S-chanf","lat":46.611982,"lon":9.982035,"order":8,"arrSec":23160,"depSec":23160,"stop":true},{"name":"Cinuos-chel-Brail","lat":46.637788,"lon":10.02174,"order":9,"arrSec":23460,"depSec":23460,"stop":true},{"name":"Zernez","lat":46.698144,"lon":10.089931,"order":10,"arrSec":24360,"depSec":24360,"stop":true},{"name":"Susch","lat":46.752057,"lon":10.079457,"order":11,"arrSec":24780,"depSec":24780,"stop":true},{"name":"Sagliains","lat":46.764766,"lon":10.103047,"order":12,"arrSec":24960,"depSec":24960,"stop":true}]},{"train":"R15-0502","typeName":"Rhätische Bahn","carName":"Rhätische Bahn","color":"#D9291C","stops":[{"name":"St. Moritz","lat":46.49767,"lon":9.846173,"order":1,"arrSec":18120,"depSec":18120,"stop":true},{"name":"Celerina","lat":46.513857,"lon":9.858462,"order":2,"arrSec":18300,"depSec":18360,"stop":true},{"name":"Samedan","lat":46.53358,"lon":9.873267,"order":3,"arrSec":18540,"depSec":18780,"stop":true},{"name":"Bever","lat":46.549725,"lon":9.888655,"order":4,"arrSec":18900,"depSec":18900,"stop":true},{"name":"La Punt Chamues-ch","lat":46.578846,"lon":9.923905,"order":5,"arrSec":19200,"depSec":19200,"stop":true},{"name":"Madulain","lat":46.587027,"lon":9.938188,"order":6,"arrSec":19320,"depSec":19320,"stop":true},{"name":"Zuoz","lat":46.600021,"lon":9.961292,"order":7,"arrSec":19500,"depSec":19560,"stop":true},{"name":"S-chanf","lat":46.611982,"lon":9.982035,"order":8,"arrSec":19740,"depSec":19740,"stop":true},{"name":"Cinuos-chel-Brail","lat":46.637788,"lon":10.02174,"order":9,"arrSec":20040,"depSec":20040,"stop":true},{"name":"Zernez","lat":46.698144,"lon":10.089931,"order":10,"arrSec":20700,"depSec":20760,"stop":true},{"name":"Susch","lat":46.752057,"lon":10.079457,"order":11,"arrSec":21180,"depSec":21180,"stop":true},{"name":"Sagliains","lat":46.764766,"lon":10.103047,"order":12,"arrSec":21360,"depSec":21480,"stop":true},{"name":"Lavin","lat":46.769657,"lon":10.110844,"order":13,"arrSec":21540,"depSec":21600,"stop":true},{"name":"Guarda","lat":46.771522,"lon":10.150487,"order":14,"arrSec":21840,"depSec":21840,"stop":true},{"name":"Ardez","lat":46.773558,"lon":10.200963,"order":15,"arrSec":22140,"depSec":22200,"stop":true},{"name":"Ftan Baraigla","lat":46.787725,"lon":10.257979,"order":16,"arrSec":22500,"depSec":22500,"stop":true},{"name":"Scuol-Tarasp","lat":46.793925,"lon":10.286465,"order":17,"arrSec":22740,"depSec":22740,"stop":true}]},{"train":"R15-1705","typeName":"Rhätische Bahn","carName":"Rhätische Bahn","color":"#D9291C","stops":[{"name":"Pontresina","lat":46.490644,"lon":9.896218,"order":1,"arrSec":61500,"depSec":61500,"stop":true},{"name":"Punt Muragl","lat":46.509795,"lon":9.881154,"order":2,"arrSec":61620,"depSec":61620,"stop":true},{"name":"Samedan","lat":46.533555,"lon":9.87341,"order":3,"arrSec":61920,"depSec":62160,"stop":true},{"name":"Bever","lat":46.549725,"lon":9.888655,"order":4,"arrSec":62280,"depSec":62280,"stop":true},{"name":"La Punt Chamues-ch","lat":46.578846,"lon":9.923905,"order":5,"arrSec":62580,"depSec":62580,"stop":true},{"name":"Madulain","lat":46.587027,"lon":9.938188,"order":6,"arrSec":62700,"depSec":62760,"stop":true},{"name":"Zuoz","lat":46.600021,"lon":9.961292,"order":7,"arrSec":62940,"depSec":62940,"stop":true},{"name":"S-chanf","lat":46.611982,"lon":9.982035,"order":8,"arrSec":63180,"depSec":63180,"stop":true},{"name":"Cinuos-chel-Brail","lat":46.637788,"lon":10.02174,"order":9,"arrSec":63480,"depSec":63600,"stop":true},{"name":"Zernez","lat":46.698144,"lon":10.089931,"order":10,"arrSec":64320,"depSec":64320,"stop":true},{"name":"Susch","lat":46.752057,"lon":10.079457,"order":11,"arrSec":64740,"depSec":64800,"stop":true},{"name":"Sagliains","lat":46.764766,"lon":10.103047,"order":12,"arrSec":64980,"depSec":65040,"stop":true},{"name":"Lavin","lat":46.769657,"lon":10.110844,"order":13,"arrSec":65160,"depSec":65160,"stop":true},{"name":"Guarda","lat":46.771522,"lon":10.150487,"order":14,"arrSec":65400,"depSec":65400,"stop":true},{"name":"Ardez","lat":46.773558,"lon":10.200963,"order":15,"arrSec":65640,"depSec":65640,"stop":true},{"name":"Ftan Baraigla","lat":46.787725,"lon":10.257979,"order":16,"arrSec":66000,"depSec":66000,"stop":true},{"name":"Scuol-Tarasp","lat":46.793888,"lon":10.286626,"order":17,"arrSec":66300,"depSec":66300,"stop":true}]},{"train":"R15-2234","typeName":"Rhätische Bahn","carName":"Rhätische Bahn","color":"#D9291C","stops":[{"name":"Zuoz","lat":46.600021,"lon":9.961292,"order":1,"arrSec":81240,"depSec":81240,"stop":true},{"name":"Madulain","lat":46.587027,"lon":9.938188,"order":2,"arrSec":81420,"depSec":81420,"stop":true},{"name":"La Punt Chamues-ch","lat":46.578846,"lon":9.923905,"order":3,"arrSec":81540,"depSec":81540,"stop":true},{"name":"Bever","lat":46.549725,"lon":9.888655,"order":4,"arrSec":81840,"depSec":81900,"stop":true},{"name":"Samedan","lat":46.533555,"lon":9.87341,"order":5,"arrSec":82080,"depSec":82200,"stop":true},{"name":"Punt Muragl","lat":46.509795,"lon":9.881154,"order":6,"arrSec":82380,"depSec":82380,"stop":true},{"name":"Pontresina","lat":46.490644,"lon":9.896218,"order":7,"arrSec":82680,"depSec":82680,"stop":true}]},{"train":"R15-1605","typeName":"Rhätische Bahn","carName":"Rhätische Bahn","color":"#D9291C","stops":[{"name":"Pontresina","lat":46.490644,"lon":9.896218,"order":1,"arrSec":57900,"depSec":57900,"stop":true},{"name":"Punt Muragl","lat":46.509795,"lon":9.881154,"order":2,"arrSec":58020,"depSec":58020,"stop":true},{"name":"Samedan","lat":46.533555,"lon":9.87341,"order":3,"arrSec":58320,"depSec":58560,"stop":true},{"name":"Bever","lat":46.549725,"lon":9.888655,"order":4,"arrSec":58680,"depSec":58680,"stop":true},{"name":"La Punt Chamues-ch","lat":46.578846,"lon":9.923905,"order":5,"arrSec":58980,"depSec":58980,"stop":true},{"name":"Madulain","lat":46.587027,"lon":9.938188,"order":6,"arrSec":59100,"depSec":59160,"stop":true},{"name":"Zuoz","lat":46.600021,"lon":9.961292,"order":7,"arrSec":59340,"depSec":59340,"stop":true},{"name":"S-chanf","lat":46.611982,"lon":9.982035,"order":8,"arrSec":59580,"depSec":59580,"stop":true},{"name":"Cinuos-chel-Brail","lat":46.637788,"lon":10.02174,"order":9,"arrSec":59880,"depSec":60000,"stop":true},{"name":"Zernez","lat":46.698144,"lon":10.089931,"order":10,"arrSec":60720,"depSec":60720,"stop":true},{"name":"Susch","lat":46.752057,"lon":10.079457,"order":11,"arrSec":61140,"depSec":61200,"stop":true},{"name":"Sagliains","lat":46.764766,"lon":10.103047,"order":12,"arrSec":61380,"depSec":61440,"stop":true},{"name":"Lavin","lat":46.769657,"lon":10.110844,"order":13,"arrSec":61560,"depSec":61560,"stop":true},{"name":"Guarda","lat":46.771522,"lon":10.150487,"order":14,"arrSec":61800,"depSec":61800,"stop":true},{"name":"Ardez","lat":46.773558,"lon":10.200963,"order":15,"arrSec":62040,"depSec":62040,"stop":true},{"name":"Ftan Baraigla","lat":46.787725,"lon":10.257979,"order":16,"arrSec":62400,"depSec":62400,"stop":true},{"name":"Scuol-Tarasp","lat":46.793888,"lon":10.286626,"order":17,"arrSec":62700,"depSec":62700,"stop":true}]},{"train":"R15-1505","typeName":"Rhätische Bahn","carName":"Rhätische Bahn","color":"#D9291C","stops":[{"name":"Pontresina","lat":46.490644,"lon":9.896218,"order":1,"arrSec":54300,"depSec":54300,"stop":true},{"name":"Punt Muragl","lat":46.509795,"lon":9.881154,"order":2,"arrSec":54420,"depSec":54420,"stop":true},{"name":"Samedan","lat":46.533555,"lon":9.87341,"order":3,"arrSec":54720,"depSec":54960,"stop":true},{"name":"Bever","lat":46.549725,"lon":9.888655,"order":4,"arrSec":55080,"depSec":55080,"stop":true},{"name":"La Punt Chamues-ch","lat":46.578846,"lon":9.923905,"order":5,"arrSec":55380,"depSec":55380,"stop":true},{"name":"Madulain","lat":46.587027,"lon":9.938188,"order":6,"arrSec":55500,"depSec":55560,"stop":true},{"name":"Zuoz","lat":46.600021,"lon":9.961292,"order":7,"arrSec":55740,"depSec":55740,"stop":true},{"name":"S-chanf","lat":46.611982,"lon":9.982035,"order":8,"arrSec":55980,"depSec":55980,"stop":true},{"name":"Cinuos-chel-Brail","lat":46.637788,"lon":10.02174,"order":9,"arrSec":56280,"depSec":56400,"stop":true},{"name":"Zernez","lat":46.698144,"lon":10.089931,"order":10,"arrSec":57120,"depSec":57120,"stop":true},{"name":"Susch","lat":46.752057,"lon":10.079457,"order":11,"arrSec":57540,"depSec":57600,"stop":true},{"name":"Sagliains","lat":46.764766,"lon":10.103047,"order":12,"arrSec":57780,"depSec":57840,"stop":true},{"name":"Lavin","lat":46.769657,"lon":10.110844,"order":13,"arrSec":57960,"depSec":57960,"stop":true},{"name":"Guarda","lat":46.771522,"lon":10.150487,"order":14,"arrSec":58200,"depSec":58200,"stop":true},{"name":"Ardez","lat":46.773558,"lon":10.200963,"order":15,"arrSec":58440,"depSec":58440,"stop":true},{"name":"Ftan Baraigla","lat":46.787725,"lon":10.257979,"order":16,"arrSec":58800,"depSec":58800,"stop":true},{"name":"Scuol-Tarasp","lat":46.793888,"lon":10.286626,"order":17,"arrSec":59100,"depSec":59100,"stop":true}]},{"train":"R15-0905","typeName":"Rhätische Bahn","carName":"Rhätische Bahn","color":"#D9291C","stops":[{"name":"Pontresina","lat":46.490644,"lon":9.896218,"order":1,"arrSec":32700,"depSec":32700,"stop":true},{"name":"Punt Muragl","lat":46.509795,"lon":9.881154,"order":2,"arrSec":32820,"depSec":32820,"stop":true},{"name":"Samedan","lat":46.533555,"lon":9.87341,"order":3,"arrSec":33120,"depSec":33360,"stop":true},{"name":"Bever","lat":46.549725,"lon":9.888655,"order":4,"arrSec":33480,"depSec":33480,"stop":true},{"name":"La Punt Chamues-ch","lat":46.578846,"lon":9.923905,"order":5,"arrSec":33780,"depSec":33780,"stop":true},{"name":"Madulain","lat":46.587027,"lon":9.938188,"order":6,"arrSec":33900,"depSec":33960,"stop":true},{"name":"Zuoz","lat":46.600021,"lon":9.961292,"order":7,"arrSec":34140,"depSec":34140,"stop":true},{"name":"S-chanf","lat":46.611982,"lon":9.982035,"order":8,"arrSec":34380,"depSec":34380,"stop":true},{"name":"Cinuos-chel-Brail","lat":46.637788,"lon":10.02174,"order":9,"arrSec":34680,"depSec":34800,"stop":true},{"name":"Zernez","lat":46.698144,"lon":10.089931,"order":10,"arrSec":35520,"depSec":35520,"stop":true},{"name":"Susch","lat":46.752057,"lon":10.079457,"order":11,"arrSec":35940,"depSec":36000,"stop":true},{"name":"Sagliains","lat":46.764766,"lon":10.103047,"order":12,"arrSec":36180,"depSec":36240,"stop":true},{"name":"Lavin","lat":46.769657,"lon":10.110844,"order":13,"arrSec":36360,"depSec":36360,"stop":true},{"name":"Guarda","lat":46.771522,"lon":10.150487,"order":14,"arrSec":36600,"depSec":36600,"stop":true},{"name":"Ardez","lat":46.773558,"lon":10.200963,"order":15,"arrSec":36840,"depSec":36840,"stop":true},{"name":"Ftan Baraigla","lat":46.787725,"lon":10.257979,"order":16,"arrSec":37200,"depSec":37200,"stop":true},{"name":"Scuol-Tarasp","lat":46.793888,"lon":10.286626,"order":17,"arrSec":37500,"depSec":37500,"stop":true}]},{"train":"R15-1305","typeName":"Rhätische Bahn","carName":"Rhätische Bahn","color":"#D9291C","stops":[{"name":"Pontresina","lat":46.490644,"lon":9.896218,"order":1,"arrSec":47100,"depSec":47100,"stop":true},{"name":"Punt Muragl","lat":46.509795,"lon":9.881154,"order":2,"arrSec":47220,"depSec":47220,"stop":true},{"name":"Samedan","lat":46.533555,"lon":9.87341,"order":3,"arrSec":47520,"depSec":47760,"stop":true},{"name":"Bever","lat":46.549725,"lon":9.888655,"order":4,"arrSec":47880,"depSec":47880,"stop":true},{"name":"La Punt Chamues-ch","lat":46.578846,"lon":9.923905,"order":5,"arrSec":48180,"depSec":48180,"stop":true},{"name":"Madulain","lat":46.587027,"lon":9.938188,"order":6,"arrSec":48300,"depSec":48360,"stop":true},{"name":"Zuoz","lat":46.600021,"lon":9.961292,"order":7,"arrSec":48540,"depSec":48540,"stop":true},{"name":"S-chanf","lat":46.611982,"lon":9.982035,"order":8,"arrSec":48780,"depSec":48780,"stop":true},{"name":"Cinuos-chel-Brail","lat":46.637788,"lon":10.02174,"order":9,"arrSec":49080,"depSec":49200,"stop":true},{"name":"Zernez","lat":46.698144,"lon":10.089931,"order":10,"arrSec":49920,"depSec":49920,"stop":true},{"name":"Susch","lat":46.752057,"lon":10.079457,"order":11,"arrSec":50340,"depSec":50400,"stop":true},{"name":"Sagliains","lat":46.764766,"lon":10.103047,"order":12,"arrSec":50580,"depSec":50640,"stop":true},{"name":"Lavin","lat":46.769657,"lon":10.110844,"order":13,"arrSec":50760,"depSec":50760,"stop":true},{"name":"Guarda","lat":46.771522,"lon":10.150487,"order":14,"arrSec":51000,"depSec":51000,"stop":true},{"name":"Ardez","lat":46.773558,"lon":10.200963,"order":15,"arrSec":51240,"depSec":51240,"stop":true},{"name":"Ftan Baraigla","lat":46.787725,"lon":10.257979,"order":16,"arrSec":51600,"depSec":51600,"stop":true},{"name":"Scuol-Tarasp","lat":46.793888,"lon":10.286626,"order":17,"arrSec":51900,"depSec":51900,"stop":true}]},{"train":"R15-1005","typeName":"Rhätische Bahn","carName":"Rhätische Bahn","color":"#D9291C","stops":[{"name":"Pontresina","lat":46.490644,"lon":9.896218,"order":1,"arrSec":36300,"depSec":36300,"stop":true},{"name":"Punt Muragl","lat":46.509795,"lon":9.881154,"order":2,"arrSec":36420,"depSec":36420,"stop":true},{"name":"Samedan","lat":46.533555,"lon":9.87341,"order":3,"arrSec":36720,"depSec":36960,"stop":true},{"name":"Bever","lat":46.549725,"lon":9.888655,"order":4,"arrSec":37080,"depSec":37080,"stop":true},{"name":"La Punt Chamues-ch","lat":46.578846,"lon":9.923905,"order":5,"arrSec":37380,"depSec":37380,"stop":true},{"name":"Madulain","lat":46.587027,"lon":9.938188,"order":6,"arrSec":37500,"depSec":37560,"stop":true},{"name":"Zuoz","lat":46.600021,"lon":9.961292,"order":7,"arrSec":37740,"depSec":37740,"stop":true},{"name":"S-chanf","lat":46.611982,"lon":9.982035,"order":8,"arrSec":37980,"depSec":37980,"stop":true},{"name":"Cinuos-chel-Brail","lat":46.637788,"lon":10.02174,"order":9,"arrSec":38280,"depSec":38400,"stop":true},{"name":"Zernez","lat":46.698144,"lon":10.089931,"order":10,"arrSec":39120,"depSec":39120,"stop":true},{"name":"Susch","lat":46.752057,"lon":10.079457,"order":11,"arrSec":39540,"depSec":39600,"stop":true},{"name":"Sagliains","lat":46.764766,"lon":10.103047,"order":12,"arrSec":39780,"depSec":39840,"stop":true},{"name":"Lavin","lat":46.769657,"lon":10.110844,"order":13,"arrSec":39960,"depSec":39960,"stop":true},{"name":"Guarda","lat":46.771522,"lon":10.150487,"order":14,"arrSec":40200,"depSec":40200,"stop":true},{"name":"Ardez","lat":46.773558,"lon":10.200963,"order":15,"arrSec":40440,"depSec":40440,"stop":true},{"name":"Ftan Baraigla","lat":46.787725,"lon":10.257979,"order":16,"arrSec":40800,"depSec":40800,"stop":true},{"name":"Scuol-Tarasp","lat":46.793888,"lon":10.286626,"order":17,"arrSec":41100,"depSec":41100,"stop":true}]},{"train":"R15-0629","typeName":"Rhätische Bahn","carName":"Rhätische Bahn","color":"#D9291C","stops":[{"name":"S-chanf","lat":46.611982,"lon":9.982035,"order":1,"arrSec":23340,"depSec":23340,"stop":true},{"name":"Zuoz","lat":46.600021,"lon":9.961292,"order":2,"arrSec":23520,"depSec":23580,"stop":true},{"name":"Madulain","lat":46.587027,"lon":9.938188,"order":3,"arrSec":23700,"depSec":23700,"stop":true},{"name":"La Punt Chamues-ch","lat":46.578846,"lon":9.923905,"order":4,"arrSec":23880,"depSec":23880,"stop":true},{"name":"Bever","lat":46.549725,"lon":9.888655,"order":5,"arrSec":24120,"depSec":24180,"stop":true},{"name":"Samedan","lat":46.533555,"lon":9.87341,"order":6,"arrSec":24360,"depSec":24600,"stop":true},{"name":"Punt Muragl","lat":46.509795,"lon":9.881154,"order":7,"arrSec":24720,"depSec":24720,"stop":true},{"name":"Pontresina","lat":46.490644,"lon":9.896218,"order":8,"arrSec":25080,"depSec":25080,"stop":true}]},{"train":"R15-1105","typeName":"Rhätische Bahn","carName":"Rhätische Bahn","color":"#D9291C","stops":[{"name":"Pontresina","lat":46.490644,"lon":9.896218,"order":1,"arrSec":39900,"depSec":39900,"stop":true},{"name":"Punt Muragl","lat":46.509795,"lon":9.881154,"order":2,"arrSec":40020,"depSec":40020,"stop":true},{"name":"Samedan","lat":46.533555,"lon":9.87341,"order":3,"arrSec":40320,"depSec":40560,"stop":true},{"name":"Bever","lat":46.549725,"lon":9.888655,"order":4,"arrSec":40680,"depSec":40680,"stop":true},{"name":"La Punt Chamues-ch","lat":46.578846,"lon":9.923905,"order":5,"arrSec":40980,"depSec":40980,"stop":true},{"name":"Madulain","lat":46.587027,"lon":9.938188,"order":6,"arrSec":41100,"depSec":41160,"stop":true},{"name":"Zuoz","lat":46.600021,"lon":9.961292,"order":7,"arrSec":41340,"depSec":41340,"stop":true},{"name":"S-chanf","lat":46.611982,"lon":9.982035,"order":8,"arrSec":41580,"depSec":41580,"stop":true},{"name":"Cinuos-chel-Brail","lat":46.637788,"lon":10.02174,"order":9,"arrSec":41880,"depSec":42000,"stop":true},{"name":"Zernez","lat":46.698144,"lon":10.089931,"order":10,"arrSec":42720,"depSec":42720,"stop":true},{"name":"Susch","lat":46.752057,"lon":10.079457,"order":11,"arrSec":43140,"depSec":43200,"stop":true},{"name":"Sagliains","lat":46.764766,"lon":10.103047,"order":12,"arrSec":43380,"depSec":43440,"stop":true},{"name":"Lavin","lat":46.769657,"lon":10.110844,"order":13,"arrSec":43560,"depSec":43560,"stop":true},{"name":"Guarda","lat":46.771522,"lon":10.150487,"order":14,"arrSec":43800,"depSec":43800,"stop":true},{"name":"Ardez","lat":46.773558,"lon":10.200963,"order":15,"arrSec":44040,"depSec":44040,"stop":true},{"name":"Ftan Baraigla","lat":46.787725,"lon":10.257979,"order":16,"arrSec":44400,"depSec":44400,"stop":true},{"name":"Scuol-Tarasp","lat":46.793888,"lon":10.286626,"order":17,"arrSec":44700,"depSec":44700,"stop":true}]},{"train":"R15-1205","typeName":"Rhätische Bahn","carName":"Rhätische Bahn","color":"#D9291C","stops":[{"name":"Pontresina","lat":46.490644,"lon":9.896218,"order":1,"arrSec":43500,"depSec":43500,"stop":true},{"name":"Punt Muragl","lat":46.509795,"lon":9.881154,"order":2,"arrSec":43620,"depSec":43620,"stop":true},{"name":"Samedan","lat":46.533555,"lon":9.87341,"order":3,"arrSec":43920,"depSec":44160,"stop":true},{"name":"Bever","lat":46.549725,"lon":9.888655,"order":4,"arrSec":44280,"depSec":44280,"stop":true},{"name":"La Punt Chamues-ch","lat":46.578846,"lon":9.923905,"order":5,"arrSec":44580,"depSec":44580,"stop":true},{"name":"Madulain","lat":46.587027,"lon":9.938188,"order":6,"arrSec":44700,"depSec":44760,"stop":true},{"name":"Zuoz","lat":46.600021,"lon":9.961292,"order":7,"arrSec":44940,"depSec":44940,"stop":true},{"name":"S-chanf","lat":46.611982,"lon":9.982035,"order":8,"arrSec":45180,"depSec":45180,"stop":true},{"name":"Cinuos-chel-Brail","lat":46.637788,"lon":10.02174,"order":9,"arrSec":45480,"depSec":45600,"stop":true},{"name":"Zernez","lat":46.698144,"lon":10.089931,"order":10,"arrSec":46320,"depSec":46320,"stop":true},{"name":"Susch","lat":46.752057,"lon":10.079457,"order":11,"arrSec":46740,"depSec":46800,"stop":true},{"name":"Sagliains","lat":46.764766,"lon":10.103047,"order":12,"arrSec":46980,"depSec":47040,"stop":true},{"name":"Lavin","lat":46.769657,"lon":10.110844,"order":13,"arrSec":47160,"depSec":47160,"stop":true},{"name":"Guarda","lat":46.771522,"lon":10.150487,"order":14,"arrSec":47400,"depSec":47400,"stop":true},{"name":"Ardez","lat":46.773558,"lon":10.200963,"order":15,"arrSec":47640,"depSec":47640,"stop":true},{"name":"Ftan Baraigla","lat":46.787725,"lon":10.257979,"order":16,"arrSec":48000,"depSec":48000,"stop":true},{"name":"Scuol-Tarasp","lat":46.793888,"lon":10.286626,"order":17,"arrSec":48300,"depSec":48300,"stop":true}]},{"train":"R15-1805","typeName":"Rhätische Bahn","carName":"Rhätische Bahn","color":"#D9291C","stops":[{"name":"Pontresina","lat":46.490644,"lon":9.896218,"order":1,"arrSec":65100,"depSec":65100,"stop":true},{"name":"Punt Muragl","lat":46.509795,"lon":9.881154,"order":2,"arrSec":65220,"depSec":65220,"stop":true},{"name":"Samedan","lat":46.533555,"lon":9.87341,"order":3,"arrSec":65520,"depSec":65760,"stop":true},{"name":"Bever","lat":46.549725,"lon":9.888655,"order":4,"arrSec":65880,"depSec":65880,"stop":true},{"name":"La Punt Chamues-ch","lat":46.578846,"lon":9.923905,"order":5,"arrSec":66180,"depSec":66180,"stop":true},{"name":"Madulain","lat":46.587027,"lon":9.938188,"order":6,"arrSec":66300,"depSec":66360,"stop":true},{"name":"Zuoz","lat":46.600021,"lon":9.961292,"order":7,"arrSec":66540,"depSec":66540,"stop":true},{"name":"S-chanf","lat":46.611982,"lon":9.982035,"order":8,"arrSec":66780,"depSec":66780,"stop":true},{"name":"Cinuos-chel-Brail","lat":46.637788,"lon":10.02174,"order":9,"arrSec":67080,"depSec":67200,"stop":true},{"name":"Zernez","lat":46.698144,"lon":10.089931,"order":10,"arrSec":67920,"depSec":67920,"stop":true},{"name":"Susch","lat":46.752057,"lon":10.079457,"order":11,"arrSec":68340,"depSec":68400,"stop":true},{"name":"Sagliains","lat":46.764766,"lon":10.103047,"order":12,"arrSec":68580,"depSec":68640,"stop":true},{"name":"Lavin","lat":46.769657,"lon":10.110844,"order":13,"arrSec":68760,"depSec":68760,"stop":true},{"name":"Guarda","lat":46.771522,"lon":10.150487,"order":14,"arrSec":69000,"depSec":69000,"stop":true},{"name":"Ardez","lat":46.773558,"lon":10.200963,"order":15,"arrSec":69240,"depSec":69240,"stop":true},{"name":"Ftan Baraigla","lat":46.787725,"lon":10.257979,"order":16,"arrSec":69600,"depSec":69600,"stop":true},{"name":"Scuol-Tarasp","lat":46.793888,"lon":10.286626,"order":17,"arrSec":69900,"depSec":69900,"stop":true}]},{"train":"R15-1405","typeName":"Rhätische Bahn","carName":"Rhätische Bahn","color":"#D9291C","stops":[{"name":"Pontresina","lat":46.490644,"lon":9.896218,"order":1,"arrSec":50700,"depSec":50700,"stop":true},{"name":"Punt Muragl","lat":46.509795,"lon":9.881154,"order":2,"arrSec":50820,"depSec":50820,"stop":true},{"name":"Samedan","lat":46.533555,"lon":9.87341,"order":3,"arrSec":51120,"depSec":51360,"stop":true},{"name":"Bever","lat":46.549725,"lon":9.888655,"order":4,"arrSec":51480,"depSec":51480,"stop":true},{"name":"La Punt Chamues-ch","lat":46.578846,"lon":9.923905,"order":5,"arrSec":51780,"depSec":51780,"stop":true},{"name":"Madulain","lat":46.587027,"lon":9.938188,"order":6,"arrSec":51900,"depSec":51960,"stop":true},{"name":"Zuoz","lat":46.600021,"lon":9.961292,"order":7,"arrSec":52140,"depSec":52140,"stop":true},{"name":"S-chanf","lat":46.611982,"lon":9.982035,"order":8,"arrSec":52380,"depSec":52380,"stop":true},{"name":"Cinuos-chel-Brail","lat":46.637788,"lon":10.02174,"order":9,"arrSec":52680,"depSec":52800,"stop":true},{"name":"Zernez","lat":46.698144,"lon":10.089931,"order":10,"arrSec":53520,"depSec":53520,"stop":true},{"name":"Susch","lat":46.752057,"lon":10.079457,"order":11,"arrSec":53940,"depSec":54000,"stop":true},{"name":"Sagliains","lat":46.764766,"lon":10.103047,"order":12,"arrSec":54180,"depSec":54240,"stop":true},{"name":"Lavin","lat":46.769657,"lon":10.110844,"order":13,"arrSec":54360,"depSec":54360,"stop":true},{"name":"Guarda","lat":46.771522,"lon":10.150487,"order":14,"arrSec":54600,"depSec":54600,"stop":true},{"name":"Ardez","lat":46.773558,"lon":10.200963,"order":15,"arrSec":54840,"depSec":54840,"stop":true},{"name":"Ftan Baraigla","lat":46.787725,"lon":10.257979,"order":16,"arrSec":55200,"depSec":55200,"stop":true},{"name":"Scuol-Tarasp","lat":46.793888,"lon":10.286626,"order":17,"arrSec":55500,"depSec":55500,"stop":true}]},{"train":"R15-0805","typeName":"Rhätische Bahn","carName":"Rhätische Bahn","color":"#D9291C","stops":[{"name":"Pontresina","lat":46.490644,"lon":9.896218,"order":1,"arrSec":29100,"depSec":29100,"stop":true},{"name":"Punt Muragl","lat":46.509795,"lon":9.881154,"order":2,"arrSec":29220,"depSec":29220,"stop":true},{"name":"Samedan","lat":46.533555,"lon":9.87341,"order":3,"arrSec":29520,"depSec":29760,"stop":true},{"name":"Bever","lat":46.549725,"lon":9.888655,"order":4,"arrSec":29880,"depSec":29880,"stop":true},{"name":"La Punt Chamues-ch","lat":46.578846,"lon":9.923905,"order":5,"arrSec":30180,"depSec":30180,"stop":true},{"name":"Madulain","lat":46.587027,"lon":9.938188,"order":6,"arrSec":30300,"depSec":30360,"stop":true},{"name":"Zuoz","lat":46.600021,"lon":9.961292,"order":7,"arrSec":30540,"depSec":30540,"stop":true},{"name":"S-chanf","lat":46.611982,"lon":9.982035,"order":8,"arrSec":30780,"depSec":30780,"stop":true},{"name":"Cinuos-chel-Brail","lat":46.637788,"lon":10.02174,"order":9,"arrSec":31080,"depSec":31200,"stop":true},{"name":"Zernez","lat":46.698144,"lon":10.089931,"order":10,"arrSec":31920,"depSec":31920,"stop":true},{"name":"Susch","lat":46.752057,"lon":10.079457,"order":11,"arrSec":32340,"depSec":32400,"stop":true},{"name":"Sagliains","lat":46.764766,"lon":10.103047,"order":12,"arrSec":32580,"depSec":32640,"stop":true},{"name":"Lavin","lat":46.769657,"lon":10.110844,"order":13,"arrSec":32760,"depSec":32760,"stop":true},{"name":"Guarda","lat":46.771522,"lon":10.150487,"order":14,"arrSec":33000,"depSec":33000,"stop":true},{"name":"Ardez","lat":46.773558,"lon":10.200963,"order":15,"arrSec":33240,"depSec":33240,"stop":true},{"name":"Ftan Baraigla","lat":46.787725,"lon":10.257979,"order":16,"arrSec":33600,"depSec":33600,"stop":true},{"name":"Scuol-Tarasp","lat":46.793925,"lon":10.286465,"order":17,"arrSec":33900,"depSec":33900,"stop":true}]},{"train":"R15-1905","typeName":"Rhätische Bahn","carName":"Rhätische Bahn","color":"#D9291C","stops":[{"name":"Pontresina","lat":46.490644,"lon":9.896218,"order":1,"arrSec":68700,"depSec":68700,"stop":true},{"name":"Punt Muragl","lat":46.509795,"lon":9.881154,"order":2,"arrSec":68820,"depSec":68820,"stop":true},{"name":"Samedan","lat":46.533555,"lon":9.87341,"order":3,"arrSec":69120,"depSec":69360,"stop":true},{"name":"Bever","lat":46.549725,"lon":9.888655,"order":4,"arrSec":69480,"depSec":69480,"stop":true},{"name":"La Punt Chamues-ch","lat":46.578846,"lon":9.923905,"order":5,"arrSec":69780,"depSec":69780,"stop":true},{"name":"Madulain","lat":46.587027,"lon":9.938188,"order":6,"arrSec":69900,"depSec":69960,"stop":true},{"name":"Zuoz","lat":46.600021,"lon":9.961292,"order":7,"arrSec":70140,"depSec":70140,"stop":true},{"name":"S-chanf","lat":46.611982,"lon":9.982035,"order":8,"arrSec":70380,"depSec":70380,"stop":true},{"name":"Cinuos-chel-Brail","lat":46.637788,"lon":10.02174,"order":9,"arrSec":70680,"depSec":70800,"stop":true},{"name":"Zernez","lat":46.698144,"lon":10.089931,"order":10,"arrSec":71520,"depSec":71520,"stop":true},{"name":"Susch","lat":46.752057,"lon":10.079457,"order":11,"arrSec":71940,"depSec":72000,"stop":true},{"name":"Sagliains","lat":46.764766,"lon":10.103047,"order":12,"arrSec":72180,"depSec":72240,"stop":true},{"name":"Lavin","lat":46.769657,"lon":10.110844,"order":13,"arrSec":72360,"depSec":72360,"stop":true},{"name":"Guarda","lat":46.771522,"lon":10.150487,"order":14,"arrSec":72600,"depSec":72600,"stop":true},{"name":"Ardez","lat":46.773558,"lon":10.200963,"order":15,"arrSec":72840,"depSec":72840,"stop":true},{"name":"Ftan Baraigla","lat":46.787725,"lon":10.257979,"order":16,"arrSec":73200,"depSec":73200,"stop":true},{"name":"Scuol-Tarasp","lat":46.793925,"lon":10.286465,"order":17,"arrSec":73500,"depSec":73500,"stop":true}]},{"train":"R15-0705","typeName":"Rhätische Bahn","carName":"Rhätische Bahn","color":"#D9291C","stops":[{"name":"Pontresina","lat":46.490644,"lon":9.896218,"order":1,"arrSec":25500,"depSec":25500,"stop":true},{"name":"Punt Muragl","lat":46.509795,"lon":9.881154,"order":2,"arrSec":25620,"depSec":25620,"stop":true},{"name":"Samedan","lat":46.533555,"lon":9.87341,"order":3,"arrSec":25920,"depSec":26160,"stop":true},{"name":"Bever","lat":46.549725,"lon":9.888655,"order":4,"arrSec":26280,"depSec":26280,"stop":true},{"name":"La Punt Chamues-ch","lat":46.578846,"lon":9.923905,"order":5,"arrSec":26580,"depSec":26580,"stop":true},{"name":"Madulain","lat":46.587027,"lon":9.938188,"order":6,"arrSec":26700,"depSec":26760,"stop":true},{"name":"Zuoz","lat":46.600021,"lon":9.961292,"order":7,"arrSec":26940,"depSec":27180,"stop":true},{"name":"S-chanf","lat":46.611982,"lon":9.982035,"order":8,"arrSec":27360,"depSec":27360,"stop":true},{"name":"Cinuos-chel-Brail","lat":46.637788,"lon":10.02174,"order":9,"arrSec":27660,"depSec":27660,"stop":true},{"name":"Zernez","lat":46.698144,"lon":10.089931,"order":10,"arrSec":28320,"depSec":28320,"stop":true},{"name":"Susch","lat":46.752057,"lon":10.079457,"order":11,"arrSec":28740,"depSec":28800,"stop":true},{"name":"Sagliains","lat":46.764766,"lon":10.103047,"order":12,"arrSec":28980,"depSec":29040,"stop":true},{"name":"Lavin","lat":46.769657,"lon":10.110844,"order":13,"arrSec":29160,"depSec":29160,"stop":true},{"name":"Guarda","lat":46.771522,"lon":10.150487,"order":14,"arrSec":29400,"depSec":29400,"stop":true},{"name":"Ardez","lat":46.773558,"lon":10.200963,"order":15,"arrSec":29640,"depSec":29640,"stop":true},{"name":"Ftan Baraigla","lat":46.787725,"lon":10.257979,"order":16,"arrSec":30000,"depSec":30000,"stop":true},{"name":"Scuol-Tarasp","lat":46.793925,"lon":10.286465,"order":17,"arrSec":30300,"depSec":30300,"stop":true}]},{"train":"R15-0753","typeName":"Rhätische Bahn","carName":"Rhätische Bahn","color":"#D9291C","stops":[{"name":"S-chanf","lat":46.611982,"lon":9.982035,"order":1,"arrSec":28380,"depSec":28380,"stop":true},{"name":"Zuoz","lat":46.600021,"lon":9.961292,"order":2,"arrSec":28560,"depSec":28620,"stop":true},{"name":"Madulain","lat":46.587027,"lon":9.938188,"order":3,"arrSec":28740,"depSec":28740,"stop":true},{"name":"La Punt Chamues-ch","lat":46.578846,"lon":9.923905,"order":4,"arrSec":28980,"depSec":29100,"stop":true},{"name":"Bever","lat":46.549725,"lon":9.888655,"order":5,"arrSec":29400,"depSec":29400,"stop":true},{"name":"Samedan","lat":46.534006,"lon":9.87412,"order":6,"arrSec":29580,"depSec":29640,"stop":true},{"name":"Celerina","lat":46.513857,"lon":9.858462,"order":7,"arrSec":29820,"depSec":29880,"stop":true},{"name":"St. Moritz","lat":46.497818,"lon":9.845922,"order":8,"arrSec":30120,"depSec":30120,"stop":true}]},{"train":"R15-0547","typeName":"Rhätische Bahn","carName":"Rhätische Bahn","color":"#D9291C","stops":[{"name":"Samedan","lat":46.533555,"lon":9.87341,"order":1,"arrSec":20820,"depSec":20820,"stop":true},{"name":"Punt Muragl","lat":46.509795,"lon":9.881154,"order":2,"arrSec":20940,"depSec":20940,"stop":true},{"name":"Pontresina","lat":46.490644,"lon":9.896218,"order":3,"arrSec":21240,"depSec":21240,"stop":true}]},{"train":"R15-0703","typeName":"Rhätische Bahn","carName":"Rhätische Bahn","color":"#D9291C","stops":[{"name":"Sagliains","lat":46.764766,"lon":10.103047,"order":1,"arrSec":25380,"depSec":25380,"stop":true},{"name":"Susch","lat":46.752057,"lon":10.079457,"order":2,"arrSec":25500,"depSec":25500,"stop":true},{"name":"Zernez","lat":46.698144,"lon":10.089931,"order":3,"arrSec":25980,"depSec":25980,"stop":true},{"name":"Cinuos-chel-Brail","lat":46.637788,"lon":10.02174,"order":4,"arrSec":26700,"depSec":26700,"stop":true},{"name":"S-chanf","lat":46.611982,"lon":9.982035,"order":5,"arrSec":27000,"depSec":27000,"stop":true},{"name":"Zuoz","lat":46.600021,"lon":9.961292,"order":6,"arrSec":27180,"depSec":27180,"stop":true},{"name":"Madulain","lat":46.587027,"lon":9.938188,"order":7,"arrSec":27360,"depSec":27360,"stop":true},{"name":"La Punt Chamues-ch","lat":46.578846,"lon":9.923905,"order":8,"arrSec":27480,"depSec":27480,"stop":true},{"name":"Bever","lat":46.549725,"lon":9.888655,"order":9,"arrSec":27840,"depSec":27840,"stop":true},{"name":"Samedan","lat":46.533555,"lon":9.87341,"order":10,"arrSec":28080,"depSec":28200,"stop":true},{"name":"Punt Muragl","lat":46.509795,"lon":9.881154,"order":11,"arrSec":28380,"depSec":28380,"stop":true},{"name":"Pontresina","lat":46.490644,"lon":9.896218,"order":12,"arrSec":28680,"depSec":28680,"stop":true}]},{"train":"R15-0558","typeName":"Rhätische Bahn","carName":"Rhätische Bahn","color":"#D9291C","stops":[{"name":"Scuol-Tarasp","lat":46.793925,"lon":10.286465,"order":1,"arrSec":21480,"depSec":21480,"stop":true},{"name":"Ftan Baraigla","lat":46.787725,"lon":10.257979,"order":2,"arrSec":21660,"depSec":21660,"stop":true},{"name":"Ardez","lat":46.773558,"lon":10.200963,"order":3,"arrSec":22020,"depSec":22140,"stop":true},{"name":"Guarda","lat":46.771522,"lon":10.150487,"order":4,"arrSec":22380,"depSec":22380,"stop":true},{"name":"Lavin","lat":46.769627,"lon":10.110907,"order":5,"arrSec":22680,"depSec":22680,"stop":true},{"name":"Susch","lat":46.752057,"lon":10.079457,"order":6,"arrSec":22920,"depSec":22920,"stop":true},{"name":"Zernez","lat":46.698108,"lon":10.089868,"order":7,"arrSec":23340,"depSec":23400,"stop":true},{"name":"Cinuos-chel-Brail","lat":46.637788,"lon":10.02174,"order":8,"arrSec":24120,"depSec":24120,"stop":true},{"name":"S-chanf","lat":46.611982,"lon":9.982035,"order":9,"arrSec":24420,"depSec":24480,"stop":true},{"name":"Zuoz","lat":46.600021,"lon":9.961292,"order":10,"arrSec":24600,"depSec":24660,"stop":true},{"name":"Madulain","lat":46.587027,"lon":9.938188,"order":11,"arrSec":24840,"depSec":24840,"stop":true},{"name":"La Punt Chamues-ch","lat":46.578846,"lon":9.923905,"order":12,"arrSec":25020,"depSec":25200,"stop":true},{"name":"Bever","lat":46.549725,"lon":9.888655,"order":13,"arrSec":25440,"depSec":25500,"stop":true},{"name":"Samedan","lat":46.534006,"lon":9.87412,"order":14,"arrSec":25680,"depSec":26040,"stop":true},{"name":"Celerina","lat":46.513857,"lon":9.858462,"order":15,"arrSec":26220,"depSec":26340,"stop":true},{"name":"St. Moritz","lat":46.497911,"lon":9.846003,"order":16,"arrSec":26580,"depSec":26580,"stop":true}]},{"train":"R15-1533","typeName":"Rhätische Bahn","carName":"Rhätische Bahn","color":"#D9291C","stops":[{"name":"Scuol-Tarasp","lat":46.793888,"lon":10.286626,"order":1,"arrSec":55980,"depSec":55980,"stop":true},{"name":"Ftan Baraigla","lat":46.787725,"lon":10.257979,"order":2,"arrSec":56100,"depSec":56100,"stop":true},{"name":"Ardez","lat":46.773558,"lon":10.200963,"order":3,"arrSec":56520,"depSec":56520,"stop":true},{"name":"Guarda","lat":46.771522,"lon":10.150487,"order":4,"arrSec":56760,"depSec":56760,"stop":true},{"name":"Lavin","lat":46.769627,"lon":10.110907,"order":5,"arrSec":57000,"depSec":57060,"stop":true},{"name":"Sagliains","lat":46.764766,"lon":10.103047,"order":6,"arrSec":57180,"depSec":57240,"stop":true},{"name":"Susch","lat":46.752057,"lon":10.079457,"order":7,"arrSec":57480,"depSec":57540,"stop":true},{"name":"Zernez","lat":46.698144,"lon":10.089931,"order":8,"arrSec":57960,"depSec":58020,"stop":true},{"name":"Cinuos-chel-Brail","lat":46.637788,"lon":10.02174,"order":9,"arrSec":58680,"depSec":58740,"stop":true},{"name":"S-chanf","lat":46.611982,"lon":9.982035,"order":10,"arrSec":59040,"depSec":59040,"stop":true},{"name":"Zuoz","lat":46.600021,"lon":9.961292,"order":11,"arrSec":59220,"depSec":59340,"stop":true},{"name":"Madulain","lat":46.587027,"lon":9.938188,"order":12,"arrSec":59520,"depSec":59520,"stop":true},{"name":"La Punt Chamues-ch","lat":46.578846,"lon":9.923905,"order":13,"arrSec":59640,"depSec":59640,"stop":true},{"name":"Bever","lat":46.549725,"lon":9.888655,"order":14,"arrSec":59940,"depSec":60000,"stop":true},{"name":"Samedan","lat":46.533555,"lon":9.87341,"order":15,"arrSec":60180,"depSec":60420,"stop":true},{"name":"Punt Muragl","lat":46.509795,"lon":9.881154,"order":16,"arrSec":60600,"depSec":60600,"stop":true},{"name":"Pontresina","lat":46.490644,"lon":9.896218,"order":17,"arrSec":60900,"depSec":60900,"stop":true}]},{"train":"R15-0733","typeName":"Rhätische Bahn","carName":"Rhätische Bahn","color":"#D9291C","stops":[{"name":"Scuol-Tarasp","lat":46.793888,"lon":10.286626,"order":1,"arrSec":27180,"depSec":27180,"stop":true},{"name":"Ftan Baraigla","lat":46.787725,"lon":10.257979,"order":2,"arrSec":27300,"depSec":27300,"stop":true},{"name":"Ardez","lat":46.773558,"lon":10.200963,"order":3,"arrSec":27720,"depSec":27720,"stop":true},{"name":"Guarda","lat":46.771522,"lon":10.150487,"order":4,"arrSec":27960,"depSec":27960,"stop":true},{"name":"Lavin","lat":46.769627,"lon":10.110907,"order":5,"arrSec":28200,"depSec":28260,"stop":true},{"name":"Sagliains","lat":46.764766,"lon":10.103047,"order":6,"arrSec":28380,"depSec":28440,"stop":true},{"name":"Susch","lat":46.752057,"lon":10.079457,"order":7,"arrSec":28680,"depSec":28740,"stop":true},{"name":"Zernez","lat":46.698144,"lon":10.089931,"order":8,"arrSec":29160,"depSec":29220,"stop":true},{"name":"Cinuos-chel-Brail","lat":46.637788,"lon":10.02174,"order":9,"arrSec":29880,"depSec":29940,"stop":true},{"name":"S-chanf","lat":46.611982,"lon":9.982035,"order":10,"arrSec":30240,"depSec":30240,"stop":true},{"name":"Zuoz","lat":46.600021,"lon":9.961292,"order":11,"arrSec":30420,"depSec":30540,"stop":true},{"name":"Madulain","lat":46.587027,"lon":9.938188,"order":12,"arrSec":30720,"depSec":30720,"stop":true},{"name":"La Punt Chamues-ch","lat":46.578846,"lon":9.923905,"order":13,"arrSec":30840,"depSec":30840,"stop":true},{"name":"Bever","lat":46.549725,"lon":9.888655,"order":14,"arrSec":31140,"depSec":31200,"stop":true},{"name":"Samedan","lat":46.533555,"lon":9.87341,"order":15,"arrSec":31380,"depSec":31620,"stop":true},{"name":"Punt Muragl","lat":46.509795,"lon":9.881154,"order":16,"arrSec":31800,"depSec":31800,"stop":true},{"name":"Pontresina","lat":46.490644,"lon":9.896218,"order":17,"arrSec":32100,"depSec":32100,"stop":true}]},{"train":"R15-1733","typeName":"Rhätische Bahn","carName":"Rhätische Bahn","color":"#D9291C","stops":[{"name":"Scuol-Tarasp","lat":46.793888,"lon":10.286626,"order":1,"arrSec":63180,"depSec":63180,"stop":true},{"name":"Ftan Baraigla","lat":46.787725,"lon":10.257979,"order":2,"arrSec":63300,"depSec":63300,"stop":true},{"name":"Ardez","lat":46.773558,"lon":10.200963,"order":3,"arrSec":63720,"depSec":63720,"stop":true},{"name":"Guarda","lat":46.771522,"lon":10.150487,"order":4,"arrSec":63960,"depSec":63960,"stop":true},{"name":"Lavin","lat":46.769627,"lon":10.110907,"order":5,"arrSec":64200,"depSec":64260,"stop":true},{"name":"Sagliains","lat":46.764766,"lon":10.103047,"order":6,"arrSec":64380,"depSec":64440,"stop":true},{"name":"Susch","lat":46.752057,"lon":10.079457,"order":7,"arrSec":64680,"depSec":64740,"stop":true},{"name":"Zernez","lat":46.698144,"lon":10.089931,"order":8,"arrSec":65160,"depSec":65220,"stop":true},{"name":"Cinuos-chel-Brail","lat":46.637788,"lon":10.02174,"order":9,"arrSec":65880,"depSec":65940,"stop":true},{"name":"S-chanf","lat":46.611982,"lon":9.982035,"order":10,"arrSec":66240,"depSec":66240,"stop":true},{"name":"Zuoz","lat":46.600021,"lon":9.961292,"order":11,"arrSec":66420,"depSec":66540,"stop":true},{"name":"Madulain","lat":46.587027,"lon":9.938188,"order":12,"arrSec":66720,"depSec":66720,"stop":true},{"name":"La Punt Chamues-ch","lat":46.578846,"lon":9.923905,"order":13,"arrSec":66840,"depSec":66840,"stop":true},{"name":"Bever","lat":46.549725,"lon":9.888655,"order":14,"arrSec":67140,"depSec":67200,"stop":true},{"name":"Samedan","lat":46.533555,"lon":9.87341,"order":15,"arrSec":67380,"depSec":67620,"stop":true},{"name":"Punt Muragl","lat":46.509795,"lon":9.881154,"order":16,"arrSec":67800,"depSec":67800,"stop":true},{"name":"Pontresina","lat":46.490644,"lon":9.896218,"order":17,"arrSec":68100,"depSec":68100,"stop":true}]},{"train":"R15-1033","typeName":"Rhätische Bahn","carName":"Rhätische Bahn","color":"#D9291C","stops":[{"name":"Scuol-Tarasp","lat":46.793888,"lon":10.286626,"order":1,"arrSec":37980,"depSec":37980,"stop":true},{"name":"Ftan Baraigla","lat":46.787725,"lon":10.257979,"order":2,"arrSec":38100,"depSec":38100,"stop":true},{"name":"Ardez","lat":46.773558,"lon":10.200963,"order":3,"arrSec":38520,"depSec":38520,"stop":true},{"name":"Guarda","lat":46.771522,"lon":10.150487,"order":4,"arrSec":38760,"depSec":38760,"stop":true},{"name":"Lavin","lat":46.769627,"lon":10.110907,"order":5,"arrSec":39000,"depSec":39060,"stop":true},{"name":"Sagliains","lat":46.764766,"lon":10.103047,"order":6,"arrSec":39180,"depSec":39240,"stop":true},{"name":"Susch","lat":46.752057,"lon":10.079457,"order":7,"arrSec":39480,"depSec":39540,"stop":true},{"name":"Zernez","lat":46.698144,"lon":10.089931,"order":8,"arrSec":39960,"depSec":40020,"stop":true},{"name":"Cinuos-chel-Brail","lat":46.637788,"lon":10.02174,"order":9,"arrSec":40680,"depSec":40740,"stop":true},{"name":"S-chanf","lat":46.611982,"lon":9.982035,"order":10,"arrSec":41040,"depSec":41040,"stop":true},{"name":"Zuoz","lat":46.600021,"lon":9.961292,"order":11,"arrSec":41220,"depSec":41340,"stop":true},{"name":"Madulain","lat":46.587027,"lon":9.938188,"order":12,"arrSec":41520,"depSec":41520,"stop":true},{"name":"La Punt Chamues-ch","lat":46.578846,"lon":9.923905,"order":13,"arrSec":41640,"depSec":41640,"stop":true},{"name":"Bever","lat":46.549725,"lon":9.888655,"order":14,"arrSec":41940,"depSec":42000,"stop":true},{"name":"Samedan","lat":46.533555,"lon":9.87341,"order":15,"arrSec":42180,"depSec":42420,"stop":true},{"name":"Punt Muragl","lat":46.509795,"lon":9.881154,"order":16,"arrSec":42600,"depSec":42600,"stop":true},{"name":"Pontresina","lat":46.490644,"lon":9.896218,"order":17,"arrSec":42900,"depSec":42900,"stop":true}]},{"train":"R15-1233","typeName":"Rhätische Bahn","carName":"Rhätische Bahn","color":"#D9291C","stops":[{"name":"Scuol-Tarasp","lat":46.793888,"lon":10.286626,"order":1,"arrSec":45180,"depSec":45180,"stop":true},{"name":"Ftan Baraigla","lat":46.787725,"lon":10.257979,"order":2,"arrSec":45300,"depSec":45300,"stop":true},{"name":"Ardez","lat":46.773558,"lon":10.200963,"order":3,"arrSec":45720,"depSec":45720,"stop":true},{"name":"Guarda","lat":46.771522,"lon":10.150487,"order":4,"arrSec":45960,"depSec":45960,"stop":true},{"name":"Lavin","lat":46.769627,"lon":10.110907,"order":5,"arrSec":46200,"depSec":46260,"stop":true},{"name":"Sagliains","lat":46.764766,"lon":10.103047,"order":6,"arrSec":46380,"depSec":46440,"stop":true},{"name":"Susch","lat":46.752057,"lon":10.079457,"order":7,"arrSec":46680,"depSec":46740,"stop":true},{"name":"Zernez","lat":46.698144,"lon":10.089931,"order":8,"arrSec":47160,"depSec":47220,"stop":true},{"name":"Cinuos-chel-Brail","lat":46.637788,"lon":10.02174,"order":9,"arrSec":47880,"depSec":47940,"stop":true},{"name":"S-chanf","lat":46.611982,"lon":9.982035,"order":10,"arrSec":48240,"depSec":48240,"stop":true},{"name":"Zuoz","lat":46.600021,"lon":9.961292,"order":11,"arrSec":48420,"depSec":48540,"stop":true},{"name":"Madulain","lat":46.587027,"lon":9.938188,"order":12,"arrSec":48720,"depSec":48720,"stop":true},{"name":"La Punt Chamues-ch","lat":46.578846,"lon":9.923905,"order":13,"arrSec":48840,"depSec":48840,"stop":true},{"name":"Bever","lat":46.549725,"lon":9.888655,"order":14,"arrSec":49140,"depSec":49200,"stop":true},{"name":"Samedan","lat":46.533555,"lon":9.87341,"order":15,"arrSec":49380,"depSec":49620,"stop":true},{"name":"Punt Muragl","lat":46.509795,"lon":9.881154,"order":16,"arrSec":49800,"depSec":49800,"stop":true},{"name":"Pontresina","lat":46.490644,"lon":9.896218,"order":17,"arrSec":50100,"depSec":50100,"stop":true}]},{"train":"R15-0833","typeName":"Rhätische Bahn","carName":"Rhätische Bahn","color":"#D9291C","stops":[{"name":"Scuol-Tarasp","lat":46.793888,"lon":10.286626,"order":1,"arrSec":30780,"depSec":30780,"stop":true},{"name":"Ftan Baraigla","lat":46.787725,"lon":10.257979,"order":2,"arrSec":30900,"depSec":30900,"stop":true},{"name":"Ardez","lat":46.773558,"lon":10.200963,"order":3,"arrSec":31320,"depSec":31320,"stop":true},{"name":"Guarda","lat":46.771522,"lon":10.150487,"order":4,"arrSec":31560,"depSec":31560,"stop":true},{"name":"Lavin","lat":46.769627,"lon":10.110907,"order":5,"arrSec":31800,"depSec":31860,"stop":true},{"name":"Sagliains","lat":46.764766,"lon":10.103047,"order":6,"arrSec":31980,"depSec":32040,"stop":true},{"name":"Susch","lat":46.752057,"lon":10.079457,"order":7,"arrSec":32280,"depSec":32340,"stop":true},{"name":"Zernez","lat":46.698144,"lon":10.089931,"order":8,"arrSec":32760,"depSec":32820,"stop":true},{"name":"Cinuos-chel-Brail","lat":46.637788,"lon":10.02174,"order":9,"arrSec":33480,"depSec":33540,"stop":true},{"name":"S-chanf","lat":46.611982,"lon":9.982035,"order":10,"arrSec":33840,"depSec":33840,"stop":true},{"name":"Zuoz","lat":46.600021,"lon":9.961292,"order":11,"arrSec":34020,"depSec":34140,"stop":true},{"name":"Madulain","lat":46.587027,"lon":9.938188,"order":12,"arrSec":34320,"depSec":34320,"stop":true},{"name":"La Punt Chamues-ch","lat":46.578846,"lon":9.923905,"order":13,"arrSec":34440,"depSec":34440,"stop":true},{"name":"Bever","lat":46.549725,"lon":9.888655,"order":14,"arrSec":34740,"depSec":34800,"stop":true},{"name":"Samedan","lat":46.533555,"lon":9.87341,"order":15,"arrSec":34980,"depSec":35220,"stop":true},{"name":"Punt Muragl","lat":46.509795,"lon":9.881154,"order":16,"arrSec":35400,"depSec":35400,"stop":true},{"name":"Pontresina","lat":46.490644,"lon":9.896218,"order":17,"arrSec":35700,"depSec":35700,"stop":true}]},{"train":"R15-0933","typeName":"Rhätische Bahn","carName":"Rhätische Bahn","color":"#D9291C","stops":[{"name":"Scuol-Tarasp","lat":46.793888,"lon":10.286626,"order":1,"arrSec":34380,"depSec":34380,"stop":true},{"name":"Ftan Baraigla","lat":46.787725,"lon":10.257979,"order":2,"arrSec":34500,"depSec":34500,"stop":true},{"name":"Ardez","lat":46.773558,"lon":10.200963,"order":3,"arrSec":34920,"depSec":34920,"stop":true},{"name":"Guarda","lat":46.771522,"lon":10.150487,"order":4,"arrSec":35160,"depSec":35160,"stop":true},{"name":"Lavin","lat":46.769627,"lon":10.110907,"order":5,"arrSec":35400,"depSec":35460,"stop":true},{"name":"Sagliains","lat":46.764766,"lon":10.103047,"order":6,"arrSec":35580,"depSec":35640,"stop":true},{"name":"Susch","lat":46.752057,"lon":10.079457,"order":7,"arrSec":35880,"depSec":35940,"stop":true},{"name":"Zernez","lat":46.698144,"lon":10.089931,"order":8,"arrSec":36360,"depSec":36420,"stop":true},{"name":"Cinuos-chel-Brail","lat":46.637788,"lon":10.02174,"order":9,"arrSec":37080,"depSec":37140,"stop":true},{"name":"S-chanf","lat":46.611982,"lon":9.982035,"order":10,"arrSec":37440,"depSec":37440,"stop":true},{"name":"Zuoz","lat":46.600021,"lon":9.961292,"order":11,"arrSec":37620,"depSec":37740,"stop":true},{"name":"Madulain","lat":46.587027,"lon":9.938188,"order":12,"arrSec":37920,"depSec":37920,"stop":true},{"name":"La Punt Chamues-ch","lat":46.578846,"lon":9.923905,"order":13,"arrSec":38040,"depSec":38040,"stop":true},{"name":"Bever","lat":46.549725,"lon":9.888655,"order":14,"arrSec":38340,"depSec":38400,"stop":true},{"name":"Samedan","lat":46.533555,"lon":9.87341,"order":15,"arrSec":38580,"depSec":38820,"stop":true},{"name":"Punt Muragl","lat":46.509795,"lon":9.881154,"order":16,"arrSec":39000,"depSec":39000,"stop":true},{"name":"Pontresina","lat":46.490644,"lon":9.896218,"order":17,"arrSec":39300,"depSec":39300,"stop":true}]},{"train":"R15-1333","typeName":"Rhätische Bahn","carName":"Rhätische Bahn","color":"#D9291C","stops":[{"name":"Scuol-Tarasp","lat":46.793888,"lon":10.286626,"order":1,"arrSec":48780,"depSec":48780,"stop":true},{"name":"Ftan Baraigla","lat":46.787725,"lon":10.257979,"order":2,"arrSec":48900,"depSec":48900,"stop":true},{"name":"Ardez","lat":46.773558,"lon":10.200963,"order":3,"arrSec":49320,"depSec":49320,"stop":true},{"name":"Guarda","lat":46.771522,"lon":10.150487,"order":4,"arrSec":49560,"depSec":49560,"stop":true},{"name":"Lavin","lat":46.769627,"lon":10.110907,"order":5,"arrSec":49800,"depSec":49860,"stop":true},{"name":"Sagliains","lat":46.764766,"lon":10.103047,"order":6,"arrSec":49980,"depSec":50040,"stop":true},{"name":"Susch","lat":46.752057,"lon":10.079457,"order":7,"arrSec":50280,"depSec":50340,"stop":true},{"name":"Zernez","lat":46.698144,"lon":10.089931,"order":8,"arrSec":50760,"depSec":50820,"stop":true},{"name":"Cinuos-chel-Brail","lat":46.637788,"lon":10.02174,"order":9,"arrSec":51480,"depSec":51540,"stop":true},{"name":"S-chanf","lat":46.611982,"lon":9.982035,"order":10,"arrSec":51840,"depSec":51840,"stop":true},{"name":"Zuoz","lat":46.600021,"lon":9.961292,"order":11,"arrSec":52020,"depSec":52140,"stop":true},{"name":"Madulain","lat":46.587027,"lon":9.938188,"order":12,"arrSec":52320,"depSec":52320,"stop":true},{"name":"La Punt Chamues-ch","lat":46.578846,"lon":9.923905,"order":13,"arrSec":52440,"depSec":52440,"stop":true},{"name":"Bever","lat":46.549725,"lon":9.888655,"order":14,"arrSec":52740,"depSec":52800,"stop":true},{"name":"Samedan","lat":46.533555,"lon":9.87341,"order":15,"arrSec":52980,"depSec":53220,"stop":true},{"name":"Punt Muragl","lat":46.509795,"lon":9.881154,"order":16,"arrSec":53400,"depSec":53400,"stop":true},{"name":"Pontresina","lat":46.490644,"lon":9.896218,"order":17,"arrSec":53700,"depSec":53700,"stop":true}]},{"train":"R15-1433","typeName":"Rhätische Bahn","carName":"Rhätische Bahn","color":"#D9291C","stops":[{"name":"Scuol-Tarasp","lat":46.793888,"lon":10.286626,"order":1,"arrSec":52380,"depSec":52380,"stop":true},{"name":"Ftan Baraigla","lat":46.787725,"lon":10.257979,"order":2,"arrSec":52500,"depSec":52500,"stop":true},{"name":"Ardez","lat":46.773558,"lon":10.200963,"order":3,"arrSec":52920,"depSec":52920,"stop":true},{"name":"Guarda","lat":46.771522,"lon":10.150487,"order":4,"arrSec":53160,"depSec":53160,"stop":true},{"name":"Lavin","lat":46.769627,"lon":10.110907,"order":5,"arrSec":53400,"depSec":53460,"stop":true},{"name":"Sagliains","lat":46.764766,"lon":10.103047,"order":6,"arrSec":53580,"depSec":53640,"stop":true},{"name":"Susch","lat":46.752057,"lon":10.079457,"order":7,"arrSec":53880,"depSec":53940,"stop":true},{"name":"Zernez","lat":46.698144,"lon":10.089931,"order":8,"arrSec":54360,"depSec":54420,"stop":true},{"name":"Cinuos-chel-Brail","lat":46.637788,"lon":10.02174,"order":9,"arrSec":55080,"depSec":55140,"stop":true},{"name":"S-chanf","lat":46.611982,"lon":9.982035,"order":10,"arrSec":55440,"depSec":55440,"stop":true},{"name":"Zuoz","lat":46.600021,"lon":9.961292,"order":11,"arrSec":55620,"depSec":55740,"stop":true},{"name":"Madulain","lat":46.587027,"lon":9.938188,"order":12,"arrSec":55920,"depSec":55920,"stop":true},{"name":"La Punt Chamues-ch","lat":46.578846,"lon":9.923905,"order":13,"arrSec":56040,"depSec":56040,"stop":true},{"name":"Bever","lat":46.549725,"lon":9.888655,"order":14,"arrSec":56340,"depSec":56400,"stop":true},{"name":"Samedan","lat":46.533555,"lon":9.87341,"order":15,"arrSec":56580,"depSec":56820,"stop":true},{"name":"Punt Muragl","lat":46.509795,"lon":9.881154,"order":16,"arrSec":57000,"depSec":57000,"stop":true},{"name":"Pontresina","lat":46.490644,"lon":9.896218,"order":17,"arrSec":57300,"depSec":57300,"stop":true}]},{"train":"R15-1633","typeName":"Rhätische Bahn","carName":"Rhätische Bahn","color":"#D9291C","stops":[{"name":"Scuol-Tarasp","lat":46.793888,"lon":10.286626,"order":1,"arrSec":59580,"depSec":59580,"stop":true},{"name":"Ftan Baraigla","lat":46.787725,"lon":10.257979,"order":2,"arrSec":59700,"depSec":59700,"stop":true},{"name":"Ardez","lat":46.773558,"lon":10.200963,"order":3,"arrSec":60120,"depSec":60120,"stop":true},{"name":"Guarda","lat":46.771522,"lon":10.150487,"order":4,"arrSec":60360,"depSec":60360,"stop":true},{"name":"Lavin","lat":46.769627,"lon":10.110907,"order":5,"arrSec":60600,"depSec":60660,"stop":true},{"name":"Sagliains","lat":46.764766,"lon":10.103047,"order":6,"arrSec":60780,"depSec":60840,"stop":true},{"name":"Susch","lat":46.752057,"lon":10.079457,"order":7,"arrSec":61080,"depSec":61140,"stop":true},{"name":"Zernez","lat":46.698144,"lon":10.089931,"order":8,"arrSec":61560,"depSec":61620,"stop":true},{"name":"Cinuos-chel-Brail","lat":46.637788,"lon":10.02174,"order":9,"arrSec":62280,"depSec":62340,"stop":true},{"name":"S-chanf","lat":46.611982,"lon":9.982035,"order":10,"arrSec":62640,"depSec":62640,"stop":true},{"name":"Zuoz","lat":46.600021,"lon":9.961292,"order":11,"arrSec":62820,"depSec":62940,"stop":true},{"name":"Madulain","lat":46.587027,"lon":9.938188,"order":12,"arrSec":63120,"depSec":63120,"stop":true},{"name":"La Punt Chamues-ch","lat":46.578846,"lon":9.923905,"order":13,"arrSec":63240,"depSec":63240,"stop":true},{"name":"Bever","lat":46.549725,"lon":9.888655,"order":14,"arrSec":63540,"depSec":63600,"stop":true},{"name":"Samedan","lat":46.533555,"lon":9.87341,"order":15,"arrSec":63780,"depSec":64020,"stop":true},{"name":"Punt Muragl","lat":46.509795,"lon":9.881154,"order":16,"arrSec":64200,"depSec":64200,"stop":true},{"name":"Pontresina","lat":46.490644,"lon":9.896218,"order":17,"arrSec":64500,"depSec":64500,"stop":true}]},{"train":"R15-1133","typeName":"Rhätische Bahn","carName":"Rhätische Bahn","color":"#D9291C","stops":[{"name":"Scuol-Tarasp","lat":46.793888,"lon":10.286626,"order":1,"arrSec":41580,"depSec":41580,"stop":true},{"name":"Ftan Baraigla","lat":46.787725,"lon":10.257979,"order":2,"arrSec":41700,"depSec":41700,"stop":true},{"name":"Ardez","lat":46.773558,"lon":10.200963,"order":3,"arrSec":42120,"depSec":42120,"stop":true},{"name":"Guarda","lat":46.771522,"lon":10.150487,"order":4,"arrSec":42360,"depSec":42360,"stop":true},{"name":"Lavin","lat":46.769627,"lon":10.110907,"order":5,"arrSec":42600,"depSec":42660,"stop":true},{"name":"Sagliains","lat":46.764766,"lon":10.103047,"order":6,"arrSec":42780,"depSec":42840,"stop":true},{"name":"Susch","lat":46.752057,"lon":10.079457,"order":7,"arrSec":43080,"depSec":43140,"stop":true},{"name":"Zernez","lat":46.698144,"lon":10.089931,"order":8,"arrSec":43560,"depSec":43620,"stop":true},{"name":"Cinuos-chel-Brail","lat":46.637788,"lon":10.02174,"order":9,"arrSec":44280,"depSec":44340,"stop":true},{"name":"S-chanf","lat":46.611982,"lon":9.982035,"order":10,"arrSec":44640,"depSec":44640,"stop":true},{"name":"Zuoz","lat":46.600021,"lon":9.961292,"order":11,"arrSec":44820,"depSec":44940,"stop":true},{"name":"Madulain","lat":46.587027,"lon":9.938188,"order":12,"arrSec":45120,"depSec":45120,"stop":true},{"name":"La Punt Chamues-ch","lat":46.578846,"lon":9.923905,"order":13,"arrSec":45240,"depSec":45240,"stop":true},{"name":"Bever","lat":46.549725,"lon":9.888655,"order":14,"arrSec":45540,"depSec":45600,"stop":true},{"name":"Samedan","lat":46.533555,"lon":9.87341,"order":15,"arrSec":45780,"depSec":46020,"stop":true},{"name":"Punt Muragl","lat":46.509795,"lon":9.881154,"order":16,"arrSec":46200,"depSec":46200,"stop":true},{"name":"Pontresina","lat":46.490644,"lon":9.896218,"order":17,"arrSec":46500,"depSec":46500,"stop":true}]},{"train":"R15-1933","typeName":"Rhätische Bahn","carName":"Rhätische Bahn","color":"#D9291C","stops":[{"name":"Scuol-Tarasp","lat":46.793925,"lon":10.286465,"order":1,"arrSec":70380,"depSec":70380,"stop":true},{"name":"Ftan Baraigla","lat":46.787725,"lon":10.257979,"order":2,"arrSec":70500,"depSec":70500,"stop":true},{"name":"Ardez","lat":46.773558,"lon":10.200963,"order":3,"arrSec":70920,"depSec":70920,"stop":true},{"name":"Guarda","lat":46.771522,"lon":10.150487,"order":4,"arrSec":71160,"depSec":71160,"stop":true},{"name":"Lavin","lat":46.769627,"lon":10.110907,"order":5,"arrSec":71400,"depSec":71460,"stop":true},{"name":"Sagliains","lat":46.764766,"lon":10.103047,"order":6,"arrSec":71580,"depSec":71640,"stop":true},{"name":"Susch","lat":46.752057,"lon":10.079457,"order":7,"arrSec":71880,"depSec":71940,"stop":true},{"name":"Zernez","lat":46.698144,"lon":10.089931,"order":8,"arrSec":72360,"depSec":72420,"stop":true},{"name":"Cinuos-chel-Brail","lat":46.637788,"lon":10.02174,"order":9,"arrSec":73080,"depSec":73140,"stop":true},{"name":"S-chanf","lat":46.611982,"lon":9.982035,"order":10,"arrSec":73440,"depSec":73440,"stop":true},{"name":"Zuoz","lat":46.600021,"lon":9.961292,"order":11,"arrSec":73620,"depSec":73740,"stop":true},{"name":"Madulain","lat":46.587027,"lon":9.938188,"order":12,"arrSec":73920,"depSec":73920,"stop":true},{"name":"La Punt Chamues-ch","lat":46.578846,"lon":9.923905,"order":13,"arrSec":74040,"depSec":74040,"stop":true},{"name":"Bever","lat":46.549725,"lon":9.888655,"order":14,"arrSec":74340,"depSec":74400,"stop":true},{"name":"Samedan","lat":46.533555,"lon":9.87341,"order":15,"arrSec":74580,"depSec":74820,"stop":true},{"name":"Punt Muragl","lat":46.509795,"lon":9.881154,"order":16,"arrSec":75000,"depSec":75000,"stop":true},{"name":"Pontresina","lat":46.490644,"lon":9.896218,"order":17,"arrSec":75300,"depSec":75300,"stop":true}]},{"train":"R15-1833","typeName":"Rhätische Bahn","carName":"Rhätische Bahn","color":"#D9291C","stops":[{"name":"Scuol-Tarasp","lat":46.793925,"lon":10.286465,"order":1,"arrSec":66780,"depSec":66780,"stop":true},{"name":"Ftan Baraigla","lat":46.787725,"lon":10.257979,"order":2,"arrSec":66900,"depSec":66900,"stop":true},{"name":"Ardez","lat":46.773558,"lon":10.200963,"order":3,"arrSec":67320,"depSec":67320,"stop":true},{"name":"Guarda","lat":46.771522,"lon":10.150487,"order":4,"arrSec":67560,"depSec":67560,"stop":true},{"name":"Lavin","lat":46.769627,"lon":10.110907,"order":5,"arrSec":67800,"depSec":67860,"stop":true},{"name":"Sagliains","lat":46.764766,"lon":10.103047,"order":6,"arrSec":67980,"depSec":68040,"stop":true},{"name":"Susch","lat":46.752057,"lon":10.079457,"order":7,"arrSec":68280,"depSec":68340,"stop":true},{"name":"Zernez","lat":46.698144,"lon":10.089931,"order":8,"arrSec":68760,"depSec":68820,"stop":true},{"name":"Cinuos-chel-Brail","lat":46.637788,"lon":10.02174,"order":9,"arrSec":69480,"depSec":69540,"stop":true},{"name":"S-chanf","lat":46.611982,"lon":9.982035,"order":10,"arrSec":69840,"depSec":69840,"stop":true},{"name":"Zuoz","lat":46.600021,"lon":9.961292,"order":11,"arrSec":70020,"depSec":70140,"stop":true},{"name":"Madulain","lat":46.587027,"lon":9.938188,"order":12,"arrSec":70320,"depSec":70320,"stop":true},{"name":"La Punt Chamues-ch","lat":46.578846,"lon":9.923905,"order":13,"arrSec":70440,"depSec":70440,"stop":true},{"name":"Bever","lat":46.549725,"lon":9.888655,"order":14,"arrSec":70740,"depSec":70800,"stop":true},{"name":"Samedan","lat":46.533555,"lon":9.87341,"order":15,"arrSec":70980,"depSec":71220,"stop":true},{"name":"Punt Muragl","lat":46.509795,"lon":9.881154,"order":16,"arrSec":71400,"depSec":71400,"stop":true},{"name":"Pontresina","lat":46.490644,"lon":9.896218,"order":17,"arrSec":71700,"depSec":71700,"stop":true}]},{"train":"R15-2302","typeName":"Rhätische Bahn","carName":"Rhätische Bahn","color":"#D9291C","stops":[{"name":"Pontresina","lat":46.490644,"lon":9.896218,"order":1,"arrSec":82920,"depSec":82920,"stop":true},{"name":"Punt Muragl","lat":46.509795,"lon":9.881154,"order":2,"arrSec":83040,"depSec":83040,"stop":true},{"name":"Samedan","lat":46.533555,"lon":9.87341,"order":3,"arrSec":83340,"depSec":83340,"stop":true}]},{"train":"R15-2134","typeName":"Rhätische Bahn","carName":"Rhätische Bahn","color":"#D9291C","stops":[{"name":"Zuoz","lat":46.600021,"lon":9.961292,"order":1,"arrSec":77640,"depSec":77640,"stop":true},{"name":"Madulain","lat":46.587027,"lon":9.938188,"order":2,"arrSec":77820,"depSec":77820,"stop":true},{"name":"La Punt Chamues-ch","lat":46.578846,"lon":9.923905,"order":3,"arrSec":77940,"depSec":77940,"stop":true},{"name":"Bever","lat":46.549725,"lon":9.888655,"order":4,"arrSec":78240,"depSec":78300,"stop":true},{"name":"Samedan","lat":46.533555,"lon":9.87341,"order":5,"arrSec":78480,"depSec":78600,"stop":true},{"name":"Punt Muragl","lat":46.509795,"lon":9.881154,"order":6,"arrSec":78780,"depSec":78780,"stop":true},{"name":"Pontresina","lat":46.490644,"lon":9.896218,"order":7,"arrSec":79080,"depSec":79080,"stop":true}]},{"train":"R15-2103","typeName":"Rhätische Bahn","carName":"Rhätische Bahn","color":"#D9291C","stops":[{"name":"Pontresina","lat":46.490644,"lon":9.896218,"order":1,"arrSec":75780,"depSec":75780,"stop":true},{"name":"Punt Muragl","lat":46.509795,"lon":9.881154,"order":2,"arrSec":75900,"depSec":75900,"stop":true},{"name":"Samedan","lat":46.533555,"lon":9.87341,"order":3,"arrSec":76200,"depSec":76380,"stop":true},{"name":"Bever","lat":46.549725,"lon":9.888655,"order":4,"arrSec":76500,"depSec":76560,"stop":true},{"name":"La Punt Chamues-ch","lat":46.578846,"lon":9.923905,"order":5,"arrSec":76800,"depSec":76800,"stop":true},{"name":"Madulain","lat":46.587027,"lon":9.938188,"order":6,"arrSec":76980,"depSec":76980,"stop":true},{"name":"Zuoz","lat":46.600021,"lon":9.961292,"order":7,"arrSec":77160,"depSec":77160,"stop":true}]},{"train":"R15-2005","typeName":"Rhätische Bahn","carName":"Rhätische Bahn","color":"#D9291C","stops":[{"name":"Pontresina","lat":46.490644,"lon":9.896218,"order":1,"arrSec":72300,"depSec":72300,"stop":true},{"name":"Punt Muragl","lat":46.509795,"lon":9.881154,"order":2,"arrSec":72420,"depSec":72420,"stop":true},{"name":"Samedan","lat":46.533555,"lon":9.87341,"order":3,"arrSec":72720,"depSec":72960,"stop":true},{"name":"Bever","lat":46.549725,"lon":9.888655,"order":4,"arrSec":73080,"depSec":73080,"stop":true},{"name":"La Punt Chamues-ch","lat":46.578846,"lon":9.923905,"order":5,"arrSec":73380,"depSec":73380,"stop":true},{"name":"Madulain","lat":46.587027,"lon":9.938188,"order":6,"arrSec":73500,"depSec":73560,"stop":true},{"name":"Zuoz","lat":46.600021,"lon":9.961292,"order":7,"arrSec":73740,"depSec":73740,"stop":true}]},{"train":"R15-2202","typeName":"Rhätische Bahn","carName":"Rhätische Bahn","color":"#D9291C","stops":[{"name":"Pontresina","lat":46.490644,"lon":9.896218,"order":1,"arrSec":79320,"depSec":79320,"stop":true},{"name":"Punt Muragl","lat":46.509795,"lon":9.881154,"order":2,"arrSec":79440,"depSec":79440,"stop":true},{"name":"Samedan","lat":46.533555,"lon":9.87341,"order":3,"arrSec":79740,"depSec":79980,"stop":true},{"name":"Bever","lat":46.549725,"lon":9.888655,"order":4,"arrSec":80100,"depSec":80160,"stop":true},{"name":"La Punt Chamues-ch","lat":46.578846,"lon":9.923905,"order":5,"arrSec":80400,"depSec":80400,"stop":true},{"name":"Madulain","lat":46.587027,"lon":9.938188,"order":6,"arrSec":80580,"depSec":80580,"stop":true},{"name":"Zuoz","lat":46.600021,"lon":9.961292,"order":7,"arrSec":80760,"depSec":80760,"stop":true}]},{"train":"R15-0716","typeName":"Rhätische Bahn","carName":"Rhätische Bahn","color":"#D9291C","stops":[{"name":"St. Moritz","lat":46.49767,"lon":9.846173,"order":1,"arrSec":26160,"depSec":26160,"stop":true},{"name":"Celerina","lat":46.513857,"lon":9.858462,"order":2,"arrSec":26340,"depSec":26340,"stop":true},{"name":"Samedan","lat":46.53358,"lon":9.873267,"order":3,"arrSec":26580,"depSec":26880,"stop":true},{"name":"Bever","lat":46.549762,"lon":9.88852,"order":4,"arrSec":27000,"depSec":27000,"stop":true},{"name":"La Punt Chamues-ch","lat":46.578846,"lon":9.923905,"order":5,"arrSec":27300,"depSec":27480,"stop":true},{"name":"Madulain","lat":46.587027,"lon":9.938188,"order":6,"arrSec":27600,"depSec":27600,"stop":true},{"name":"Zuoz","lat":46.600021,"lon":9.961292,"order":7,"arrSec":27840,"depSec":27900,"stop":true},{"name":"S-chanf","lat":46.611982,"lon":9.982035,"order":8,"arrSec":28080,"depSec":28080,"stop":true}]},{"train":"R16-1708","typeName":"Rhätische Bahn","carName":"Rhätische Bahn","color":"#D9291C","stops":[{"name":"Chur","lat":46.853597,"lon":9.529975,"order":1,"arrSec":61680,"depSec":61680,"stop":true},{"name":"Chur Altstadt","lat":46.847527,"lon":9.530945,"order":2,"arrSec":61800,"depSec":61800,"stop":true},{"name":"Lüen-Castiel","lat":46.831833,"lon":9.613267,"order":3,"arrSec":62820,"depSec":62880,"stop":true},{"name":"St. Peter-Molinis","lat":46.829098,"lon":9.654006,"order":4,"arrSec":63420,"depSec":63420,"stop":true},{"name":"Peist","lat":46.829719,"lon":9.671837,"order":5,"arrSec":63660,"depSec":63660,"stop":true},{"name":"Langwies GR","lat":46.819602,"lon":9.707177,"order":6,"arrSec":64140,"depSec":64200,"stop":true},{"name":"Litzirüti","lat":46.797978,"lon":9.703063,"order":7,"arrSec":64560,"depSec":64680,"stop":true},{"name":"Arosa","lat":46.783832,"lon":9.67932,"order":8,"arrSec":65340,"depSec":65340,"stop":true}]},{"train":"R16-1508","typeName":"Rhätische Bahn","carName":"Rhätische Bahn","color":"#D9291C","stops":[{"name":"Chur","lat":46.853597,"lon":9.529975,"order":1,"arrSec":54480,"depSec":54480,"stop":true},{"name":"Chur Altstadt","lat":46.847527,"lon":9.530945,"order":2,"arrSec":54600,"depSec":54600,"stop":true},{"name":"Lüen-Castiel","lat":46.831833,"lon":9.613267,"order":3,"arrSec":55620,"depSec":55680,"stop":true},{"name":"St. Peter-Molinis","lat":46.829098,"lon":9.654006,"order":4,"arrSec":56220,"depSec":56220,"stop":true},{"name":"Peist","lat":46.829719,"lon":9.671837,"order":5,"arrSec":56460,"depSec":56460,"stop":true},{"name":"Langwies GR","lat":46.819602,"lon":9.707177,"order":6,"arrSec":56940,"depSec":57000,"stop":true},{"name":"Litzirüti","lat":46.797978,"lon":9.703063,"order":7,"arrSec":57360,"depSec":57480,"stop":true},{"name":"Arosa","lat":46.783832,"lon":9.67932,"order":8,"arrSec":58140,"depSec":58140,"stop":true}]},{"train":"R16-1008","typeName":"Rhätische Bahn","carName":"Rhätische Bahn","color":"#D9291C","stops":[{"name":"Chur","lat":46.853597,"lon":9.529975,"order":1,"arrSec":36480,"depSec":36480,"stop":true},{"name":"Chur Altstadt","lat":46.847527,"lon":9.530945,"order":2,"arrSec":36600,"depSec":36600,"stop":true},{"name":"Lüen-Castiel","lat":46.831833,"lon":9.613267,"order":3,"arrSec":37620,"depSec":37680,"stop":true},{"name":"St. Peter-Molinis","lat":46.829098,"lon":9.654006,"order":4,"arrSec":38220,"depSec":38220,"stop":true},{"name":"Peist","lat":46.829719,"lon":9.671837,"order":5,"arrSec":38460,"depSec":38460,"stop":true},{"name":"Langwies GR","lat":46.819602,"lon":9.707177,"order":6,"arrSec":38940,"depSec":39000,"stop":true},{"name":"Litzirüti","lat":46.797978,"lon":9.703063,"order":7,"arrSec":39360,"depSec":39480,"stop":true},{"name":"Arosa","lat":46.783832,"lon":9.67932,"order":8,"arrSec":40140,"depSec":40140,"stop":true}]},{"train":"R16-0808","typeName":"Rhätische Bahn","carName":"Rhätische Bahn","color":"#D9291C","stops":[{"name":"Chur","lat":46.853597,"lon":9.529975,"order":1,"arrSec":29280,"depSec":29280,"stop":true},{"name":"Chur Altstadt","lat":46.847527,"lon":9.530945,"order":2,"arrSec":29400,"depSec":29400,"stop":true},{"name":"Lüen-Castiel","lat":46.831833,"lon":9.613267,"order":3,"arrSec":30420,"depSec":30480,"stop":true},{"name":"St. Peter-Molinis","lat":46.829098,"lon":9.654006,"order":4,"arrSec":31020,"depSec":31020,"stop":true},{"name":"Peist","lat":46.829719,"lon":9.671837,"order":5,"arrSec":31260,"depSec":31260,"stop":true},{"name":"Langwies GR","lat":46.819602,"lon":9.707177,"order":6,"arrSec":31740,"depSec":31800,"stop":true},{"name":"Litzirüti","lat":46.797978,"lon":9.703063,"order":7,"arrSec":32160,"depSec":32280,"stop":true},{"name":"Arosa","lat":46.783832,"lon":9.67932,"order":8,"arrSec":32940,"depSec":32940,"stop":true}]},{"train":"R16-1808","typeName":"Rhätische Bahn","carName":"Rhätische Bahn","color":"#D9291C","stops":[{"name":"Chur","lat":46.853597,"lon":9.529975,"order":1,"arrSec":65280,"depSec":65280,"stop":true},{"name":"Chur Altstadt","lat":46.847527,"lon":9.530945,"order":2,"arrSec":65400,"depSec":65400,"stop":true},{"name":"Lüen-Castiel","lat":46.831833,"lon":9.613267,"order":3,"arrSec":66420,"depSec":66480,"stop":true},{"name":"St. Peter-Molinis","lat":46.829098,"lon":9.654006,"order":4,"arrSec":67020,"depSec":67020,"stop":true},{"name":"Peist","lat":46.829719,"lon":9.671837,"order":5,"arrSec":67260,"depSec":67260,"stop":true},{"name":"Langwies GR","lat":46.819602,"lon":9.707177,"order":6,"arrSec":67740,"depSec":67800,"stop":true},{"name":"Litzirüti","lat":46.797978,"lon":9.703063,"order":7,"arrSec":68160,"depSec":68280,"stop":true},{"name":"Arosa","lat":46.783832,"lon":9.67932,"order":8,"arrSec":68940,"depSec":68940,"stop":true}]},{"train":"R16-2006","typeName":"Rhätische Bahn","carName":"Rhätische Bahn","color":"#D9291C","stops":[{"name":"Chur","lat":46.853597,"lon":9.529975,"order":1,"arrSec":72360,"depSec":72360,"stop":true},{"name":"Chur Altstadt","lat":46.847527,"lon":9.530945,"order":2,"arrSec":72480,"depSec":72480,"stop":true},{"name":"Lüen-Castiel","lat":46.831833,"lon":9.613267,"order":3,"arrSec":73440,"depSec":73500,"stop":true},{"name":"St. Peter-Molinis","lat":46.829098,"lon":9.654006,"order":4,"arrSec":73980,"depSec":73980,"stop":true},{"name":"Peist","lat":46.829719,"lon":9.671837,"order":5,"arrSec":74220,"depSec":74220,"stop":true},{"name":"Langwies GR","lat":46.819602,"lon":9.707177,"order":6,"arrSec":74640,"depSec":74640,"stop":true},{"name":"Litzirüti","lat":46.797978,"lon":9.703063,"order":7,"arrSec":75000,"depSec":75060,"stop":true},{"name":"Arosa","lat":46.783832,"lon":9.67932,"order":8,"arrSec":75720,"depSec":75720,"stop":true}]},{"train":"R16-1908","typeName":"Rhätische Bahn","carName":"Rhätische Bahn","color":"#D9291C","stops":[{"name":"Chur","lat":46.853597,"lon":9.529975,"order":1,"arrSec":68880,"depSec":68880,"stop":true},{"name":"Chur Altstadt","lat":46.847527,"lon":9.530945,"order":2,"arrSec":69000,"depSec":69000,"stop":true},{"name":"Lüen-Castiel","lat":46.831833,"lon":9.613267,"order":3,"arrSec":70020,"depSec":70080,"stop":true},{"name":"St. Peter-Molinis","lat":46.829098,"lon":9.654006,"order":4,"arrSec":70620,"depSec":70620,"stop":true},{"name":"Peist","lat":46.829719,"lon":9.671837,"order":5,"arrSec":70860,"depSec":70860,"stop":true},{"name":"Langwies GR","lat":46.819602,"lon":9.707177,"order":6,"arrSec":71340,"depSec":71400,"stop":true},{"name":"Litzirüti","lat":46.797978,"lon":9.703063,"order":7,"arrSec":71760,"depSec":71880,"stop":true},{"name":"Arosa","lat":46.783832,"lon":9.67932,"order":8,"arrSec":72540,"depSec":72540,"stop":true}]},{"train":"R16-0708","typeName":"Rhätische Bahn","carName":"Rhätische Bahn","color":"#D9291C","stops":[{"name":"Chur","lat":46.853597,"lon":9.529975,"order":1,"arrSec":25680,"depSec":25680,"stop":true},{"name":"Chur Altstadt","lat":46.847527,"lon":9.530945,"order":2,"arrSec":25800,"depSec":25800,"stop":true},{"name":"Lüen-Castiel","lat":46.831833,"lon":9.613267,"order":3,"arrSec":26820,"depSec":26880,"stop":true},{"name":"St. Peter-Molinis","lat":46.829098,"lon":9.654006,"order":4,"arrSec":27420,"depSec":27420,"stop":true},{"name":"Peist","lat":46.829719,"lon":9.671837,"order":5,"arrSec":27660,"depSec":27660,"stop":true},{"name":"Langwies GR","lat":46.819602,"lon":9.707177,"order":6,"arrSec":28140,"depSec":28200,"stop":true},{"name":"Litzirüti","lat":46.797978,"lon":9.703063,"order":7,"arrSec":28560,"depSec":28680,"stop":true},{"name":"Arosa","lat":46.783832,"lon":9.67932,"order":8,"arrSec":29340,"depSec":29340,"stop":true}]},{"train":"R16-1108","typeName":"Rhätische Bahn","carName":"Rhätische Bahn","color":"#D9291C","stops":[{"name":"Chur","lat":46.853597,"lon":9.529975,"order":1,"arrSec":40080,"depSec":40080,"stop":true},{"name":"Chur Altstadt","lat":46.847527,"lon":9.530945,"order":2,"arrSec":40200,"depSec":40200,"stop":true},{"name":"Lüen-Castiel","lat":46.831833,"lon":9.613267,"order":3,"arrSec":41220,"depSec":41280,"stop":true},{"name":"St. Peter-Molinis","lat":46.829098,"lon":9.654006,"order":4,"arrSec":41820,"depSec":41820,"stop":true},{"name":"Peist","lat":46.829719,"lon":9.671837,"order":5,"arrSec":42060,"depSec":42060,"stop":true},{"name":"Langwies GR","lat":46.819602,"lon":9.707177,"order":6,"arrSec":42540,"depSec":42600,"stop":true},{"name":"Litzirüti","lat":46.797978,"lon":9.703063,"order":7,"arrSec":42960,"depSec":43080,"stop":true},{"name":"Arosa","lat":46.783832,"lon":9.67932,"order":8,"arrSec":43740,"depSec":43740,"stop":true}]},{"train":"R16-1208","typeName":"Rhätische Bahn","carName":"Rhätische Bahn","color":"#D9291C","stops":[{"name":"Chur","lat":46.853597,"lon":9.529975,"order":1,"arrSec":43680,"depSec":43680,"stop":true},{"name":"Chur Altstadt","lat":46.847527,"lon":9.530945,"order":2,"arrSec":43800,"depSec":43800,"stop":true},{"name":"Lüen-Castiel","lat":46.831833,"lon":9.613267,"order":3,"arrSec":44820,"depSec":44880,"stop":true},{"name":"St. Peter-Molinis","lat":46.829098,"lon":9.654006,"order":4,"arrSec":45420,"depSec":45420,"stop":true},{"name":"Peist","lat":46.829719,"lon":9.671837,"order":5,"arrSec":45660,"depSec":45660,"stop":true},{"name":"Langwies GR","lat":46.819602,"lon":9.707177,"order":6,"arrSec":46140,"depSec":46200,"stop":true},{"name":"Litzirüti","lat":46.797978,"lon":9.703063,"order":7,"arrSec":46560,"depSec":46680,"stop":true},{"name":"Arosa","lat":46.783832,"lon":9.67932,"order":8,"arrSec":47340,"depSec":47340,"stop":true}]},{"train":"R16-0908","typeName":"Rhätische Bahn","carName":"Rhätische Bahn","color":"#D9291C","stops":[{"name":"Chur","lat":46.853597,"lon":9.529975,"order":1,"arrSec":32880,"depSec":32880,"stop":true},{"name":"Chur Altstadt","lat":46.847527,"lon":9.530945,"order":2,"arrSec":33000,"depSec":33000,"stop":true},{"name":"Lüen-Castiel","lat":46.831833,"lon":9.613267,"order":3,"arrSec":34020,"depSec":34080,"stop":true},{"name":"St. Peter-Molinis","lat":46.829098,"lon":9.654006,"order":4,"arrSec":34620,"depSec":34620,"stop":true},{"name":"Peist","lat":46.829719,"lon":9.671837,"order":5,"arrSec":34860,"depSec":34860,"stop":true},{"name":"Langwies GR","lat":46.819602,"lon":9.707177,"order":6,"arrSec":35340,"depSec":35400,"stop":true},{"name":"Litzirüti","lat":46.797978,"lon":9.703063,"order":7,"arrSec":35760,"depSec":35880,"stop":true},{"name":"Arosa","lat":46.783832,"lon":9.67932,"order":8,"arrSec":36540,"depSec":36540,"stop":true}]},{"train":"R16-1608","typeName":"Rhätische Bahn","carName":"Rhätische Bahn","color":"#D9291C","stops":[{"name":"Chur","lat":46.853597,"lon":9.529975,"order":1,"arrSec":58080,"depSec":58080,"stop":true},{"name":"Chur Altstadt","lat":46.847527,"lon":9.530945,"order":2,"arrSec":58200,"depSec":58200,"stop":true},{"name":"Lüen-Castiel","lat":46.831833,"lon":9.613267,"order":3,"arrSec":59220,"depSec":59280,"stop":true},{"name":"St. Peter-Molinis","lat":46.829098,"lon":9.654006,"order":4,"arrSec":59820,"depSec":59820,"stop":true},{"name":"Peist","lat":46.829719,"lon":9.671837,"order":5,"arrSec":60060,"depSec":60060,"stop":true},{"name":"Langwies GR","lat":46.819602,"lon":9.707177,"order":6,"arrSec":60540,"depSec":60600,"stop":true},{"name":"Litzirüti","lat":46.797978,"lon":9.703063,"order":7,"arrSec":60960,"depSec":61080,"stop":true},{"name":"Arosa","lat":46.783832,"lon":9.67932,"order":8,"arrSec":61740,"depSec":61740,"stop":true}]},{"train":"R16-2100","typeName":"Rhätische Bahn","carName":"Rhätische Bahn","color":"#D9291C","stops":[{"name":"Chur","lat":46.853597,"lon":9.529975,"order":1,"arrSec":75600,"depSec":75600,"stop":true},{"name":"Chur Altstadt","lat":46.847527,"lon":9.530945,"order":2,"arrSec":75720,"depSec":75720,"stop":true},{"name":"Lüen-Castiel","lat":46.831833,"lon":9.613267,"order":3,"arrSec":76800,"depSec":76800,"stop":true},{"name":"St. Peter-Molinis","lat":46.829098,"lon":9.654006,"order":4,"arrSec":77280,"depSec":77280,"stop":true},{"name":"Peist","lat":46.829719,"lon":9.671837,"order":5,"arrSec":77520,"depSec":77520,"stop":true},{"name":"Langwies GR","lat":46.819602,"lon":9.707177,"order":6,"arrSec":77940,"depSec":78000,"stop":true},{"name":"Litzirüti","lat":46.797978,"lon":9.703063,"order":7,"arrSec":78360,"depSec":78360,"stop":true},{"name":"Arosa","lat":46.783832,"lon":9.67932,"order":8,"arrSec":79020,"depSec":79020,"stop":true}]},{"train":"R16-0459","typeName":"Rhätische Bahn","carName":"Rhätische Bahn","color":"#D9291C","stops":[{"name":"Chur","lat":46.853597,"lon":9.529975,"order":1,"arrSec":17940,"depSec":17940,"stop":true},{"name":"Chur Altstadt","lat":46.847527,"lon":9.530945,"order":2,"arrSec":18060,"depSec":18060,"stop":true},{"name":"Lüen-Castiel","lat":46.831833,"lon":9.613267,"order":3,"arrSec":19140,"depSec":19200,"stop":true},{"name":"St. Peter-Molinis","lat":46.829098,"lon":9.654006,"order":4,"arrSec":19680,"depSec":19680,"stop":true},{"name":"Peist","lat":46.829719,"lon":9.671837,"order":5,"arrSec":19920,"depSec":19920,"stop":true},{"name":"Langwies GR","lat":46.819602,"lon":9.707177,"order":6,"arrSec":20400,"depSec":20400,"stop":true},{"name":"Litzirüti","lat":46.797978,"lon":9.703063,"order":7,"arrSec":20760,"depSec":20760,"stop":true},