{"system":"雪梨鐵道","source_notes":"來源:Transport for NSW (TfNSW) Open Data Hub GTFS Static 完整時刻表 (https://opendata.transport.nsw.gov.au/dataset/timetables-complete-gtfs ,檔名 full_greater_sydney_gtfs_static_0.zip);授權 Creative Commons Attribution 4.0(CC BY 4.0,https://creativecommons.org/licenses/by/4.0/legalcode ),標註義務:「Transport for NSW is attributed as the source」(逐字引用自 https://opendata.transport.nsw.gov.au/datalicence );下載快照日 2026-07-11;風險:UI 顯示需登入,但直接對 resource 檔案 URL 匿名 GET 可下載成功(HTTP 200),此為觀察到的現況、非官方書面保證的公開 API,若未來收緊,備援為使用者自行免費註冊取 API key;篩選 route_type∈{2,401,900}(Sydney/NSW/Intercity Trains、Sydney Metro、Light Rail;已排除 204/205/106/714 等NSW TrainLink 長途客運巴士與鐵路代替巴士);每路線代表 shape 依當日白名單 trip 中「原始地理長度最長」者擇優(而非單純以當日 trip 次數多寡,修正單日抽樣下端到端長途線被短程 turn-back shape 以些微票數險勝、截斷代表路徑的問題,如 CCN 雪梨—Newcastle 線);站點須落在代表 shape 上(垂直距離<0.3km)才收錄,不同實體分支(如 CCN 部分班次繞經北岸線過海港大橋)的站點若不在代表 shape 上則剔除,避免被強制投影到 shape 端點造成地圖瞬移/零距離假象;月台縮併:原始站名為月台層級(「X Station, Platform N」/「X Light Rail」),已清併為母站名層級(同名近距月台合一,座標取 d 最小月台;City Circle 等環狀再訪的同名遠距點保留)。","lines":[{"id":"BMT","name":"Blue Mountains Line","color":"#F99D1C","shape":[[-33.480672,150.157017],[-33.478335,150.166191],[-33.476801,150.170362],[-33.468646,150.183457],[-33.468327,150.192085],[-33.46891,150.193098],[-33.47067,150.194331],[-33.471207,150.196016],[-33.469914,150.198473],[-33.469851,150.199611],[-33.470828,150.201206],[-33.472185,150.202279],[-33.476601,150.203191],[-33.478173,150.204176],[-33.481328,150.208545],[-33.484532,150.2103],[-33.485871,150.213502],[-33.486696,150.214481],[-33.490792,150.215648],[-33.495974,150.223563],[-33.496434,150.226372],[-33.495233,150.228694],[-33.49149,150.230776],[-33.488478,150.239519],[-33.485282,150.24364],[-33.483731,150.244975],[-33.481209,150.245946],[-33.478765,150.245686],[-33.472915,150.239896],[-33.471594,150.239331],[-33.46936,150.240307],[-33.468637,150.241846],[-33.468635,150.243305],[-33.469516,150.245096],[-33.471874,150.247167],[-33.473529,150.25078],[-33.477175,150.251792],[-33.4794,150.253502],[-33.481788,150.254486],[-33.484957,150.258328],[-33.486464,150.261706],[-33.49164,150.266511],[-33.495198,150.268192],[-33.497518,150.269965],[-33.500947,150.273495],[-33.50313,150.277112],[-33.505618,150.278954],[-33.510361,150.281602],[-33.51205,150.281726],[-33.514002,150.280511],[-33.517483,150.274525],[-33.519006,150.273271],[-33.522942,150.272592],[-33.5265,150.274076],[-33.528133,150.273894],[-33.529748,150.272384],[-33.530815,150.268409],[-33.534073,150.264128],[-33.541192,150.260639],[-33.544714,150.260895],[-33.548633,150.262703],[-33.554417,150.263782],[-33.558827,150.261604],[-33.566305,150.25905],[-33.568862,150.258971],[-33.571844,150.260666],[-33.573617,150.260943],[-33.575268,150.260405],[-33.578148,150.25815],[-33.584473,150.257813],[-33.588188,150.256951],[-33.5902,150.257684],[-33.596457,150.263529],[-33.601119,150.263963],[-33.606226,150.267964],[-33.609926,150.267513],[-33.61489,150.268895],[-33.617496,150.272735],[-33.620686,150.274612],[-33.622318,150.27671],[-33.625351,150.279003],[-33.626469,150.282754],[-33.627806,150.284031],[-33.638361,150.284668],[-33.639482,150.284217],[-33.641066,150.282609],[-33.642179,150.282306],[-33.650746,150.284754],[-33.65227,150.284069],[-33.654336,150.281491],[-33.658121,150.278836],[-33.662813,150.277574],[-33.666086,150.279731],[-33.67026,150.279678],[-33.676983,150.282238],[-33.687845,150.29049],[-33.692293,150.291333],[-33.695135,150.290042],[-33.698123,150.291457],[-33.701375,150.290805],[-33.703457,150.291653],[-33.705719,150.294541],[-33.705972,150.296246],[-33.705376,150.299613],[-33.707687,150.303155],[-33.707859,150.307531],[-33.708802,150.308924],[-33.711445,150.310817],[-33.712095,150.312181],[-33.711501,150.315004],[-33.707186,150.317818],[-33.706349,150.320378],[-33.706756,150.32183],[-33.708612,150.323669],[-33.710326,150.326749],[-33.712,150.330904],[-33.711838,150.334667],[-33.712547,150.338125],[-33.712215,150.33993],[-33.710397,150.342437],[-33.709682,150.349023],[-33.708563,150.352855],[-33.708871,150.354499],[-33.710652,150.357063],[-33.710532,150.362592],[-33.708661,150.365807],[-33.706158,150.368338],[-33.70559,150.371522],[-33.707566,150.375502],[-33.712057,150.377554],[-33.71407,150.380068],[-33.715406,150.382747],[-33.718044,150.385699],[-33.719385,150.386343],[-33.722213,150.386188],[-33.72465,150.387009],[-33.725972,150.388148],[-33.727189,150.3903],[-33.727163,150.392795],[-33.725272,150.396364],[-33.725835,150.400961],[-33.723437,150.405492],[-33.724416,150.41009],[-33.72408,150.413391],[-33.72288,150.416039],[-33.722606,150.417746],[-33.72374,150.420857],[-33.723768,150.422206],[-33.72087,150.426515],[-33.718338,150.431738],[-33.718405,150.434588],[-33.719249,150.437126],[-33.719369,150.439234],[-33.718502,150.443107],[-33.720781,150.450935],[-33.724077,150.454724],[-33.725753,150.457538],[-33.729619,150.460561],[-33.730699,150.46366],[-33.733513,150.466468],[-33.733977,150.468543],[-33.733519,150.471281],[-33.73368,150.473769],[-33.735322,150.477629],[-33.735789,150.480822],[-33.734532,150.483882],[-33.734265,150.486324],[-33.733556,150.487369],[-33.731485,150.48821],[-33.729836,150.490049],[-33.727558,150.490554],[-33.724816,150.493144],[-33.723307,150.49377],[-33.720332,150.493911],[-33.716785,150.496878],[-33.715531,150.500225],[-33.714844,150.504911],[-33.715821,150.507812],[-33.715842,150.509079],[-33.714448,150.511757],[-33.712587,150.520619],[-33.710523,150.523085],[-33.707568,150.525015],[-33.706426,150.528238],[-33.705574,150.529422],[-33.699716,150.533582],[-33.69715,150.534466],[-33.695346,150.535934],[-33.694655,150.537522],[-33.694737,150.540378],[-33.693016,150.543114],[-33.69287,150.544787],[-33.693419,150.546068],[-33.696549,150.549803],[-33.701245,150.558481],[-33.700958,150.561182],[-33.69816,150.564936],[-33.698178,150.57014],[-33.698932,150.571941],[-33.701725,150.573276],[-33.702658,150.574518],[-33.702201,150.580643],[-33.702462,150.581963],[-33.705824,150.584788],[-33.710353,150.586442],[-33.711702,150.588507],[-33.712401,150.592017],[-33.713557,150.593304],[-33.71478,150.59358],[-33.717924,150.592748],[-33.720937,150.593743],[-33.721625,150.595793],[-33.720787,150.599568],[-33.721269,150.602549],[-33.722326,150.604127],[-33.725869,150.605742],[-33.728873,150.605573],[-33.732128,150.604352],[-33.735276,150.605858],[-33.739725,150.605853],[-33.743046,150.608913],[-33.744574,150.611285],[-33.745229,150.614822],[-33.746041,150.615812],[-33.747315,150.616304],[-33.748491,150.616019],[-33.749428,150.615136],[-33.752618,150.609996],[-33.753824,150.607011],[-33.755216,150.606177],[-33.756628,150.606301],[-33.758761,150.607937],[-33.761699,150.608501],[-33.763445,150.610363],[-33.765707,150.611842],[-33.76787,150.616035],[-33.769109,150.621226],[-33.770155,150.622671],[-33.772122,150.623171],[-33.774412,150.62178],[-33.77596,150.621784],[-33.777003,150.622592],[-33.780117,150.627256],[-33.780053,150.629198],[-33.778136,150.632639],[-33.777906,150.640354],[-33.776654,150.642071],[-33.774057,150.642828],[-33.770069,150.642027],[-33.76711,150.643198],[-33.764245,150.641925],[-33.761293,150.642575],[-33.757431,150.641742],[-33.752467,150.644827],[-33.751162,150.644797],[-33.74859,150.643587],[-33.747241,150.643742],[-33.744646,150.646293],[-33.743992,150.648133],[-33.744632,150.65043],[-33.747774,150.652994],[-33.748502,150.65556],[-33.744835,150.675896],[-33.744647,150.678764],[-33.747956,150.686104],[-33.751115,150.700529],[-33.756221,150.711614],[-33.758906,150.722791],[-33.759133,150.726211],[-33.757582,150.745963],[-33.75768,150.748745],[-33.772342,150.837515],[-33.77192,150.843114],[-33.764508,150.865688],[-33.763398,150.871827],[-33.763626,150.879415],[-33.767866,150.904494],[-33.769573,150.911248],[-33.772716,150.916879],[-33.773941,150.920272],[-33.774364,150.923518],[-33.773965,150.931207],[-33.77434,150.936181],[-33.774892,150.938579],[-33.776551,150.942388],[-33.779652,150.946861],[-33.783707,150.950043],[-33.787252,150.951447],[-33.796528,150.952867],[-33.7992,150.954341],[-33.801795,150.956884],[-33.80319,150.959764],[-33.804526,150.966311],[-33.80797,150.975096],[-33.808257,150.977856],[-33.807747,150.983744],[-33.808574,150.988292],[-33.810974,150.993148],[-33.815118,150.997403],[-33.817561,151.005682],[-33.82068,151.007834],[-33.826621,151.007368],[-33.830614,151.009117],[-33.84105,151.024355],[-33.849263,151.03305],[-33.861365,151.04172],[-33.86349,151.044661],[-33.864338,151.048057],[-33.864522,151.056454],[-33.86386,151.059943],[-33.863803,151.063288],[-33.865133,151.071617],[-33.864652,151.077796],[-33.864995,151.080584],[-33.866702,151.08607],[-33.869343,151.091374],[-33.876126,151.099653],[-33.878653,151.109043],[-33.883386,151.115558],[-33.886501,151.122394],[-33.88943,151.131196],[-33.890157,151.138268],[-33.893774,151.149097],[-33.894209,151.152369],[-33.893762,151.156905],[-33.894768,151.162148],[-33.894224,151.167532],[-33.897731,151.176864],[-33.897798,151.181903],[-33.897422,151.183933],[-33.893115,151.196687],[-33.891364,151.199313],[-33.886587,151.203247],[-33.883678,151.206473]],"shapeLen":154.7383,"stations":[{"name":"Lithgow","lat":-33.480577,"lon":150.156977,"d":0},{"name":"Zig Zag","lat":-33.47168,"lon":150.201893,"d":4.8105},{"name":"Bell","lat":-33.505863,"lon":150.278978,"d":18.5557},{"name":"Mount Victoria","lat":-33.588146,"lon":150.256964,"d":28.9246},{"name":"Blackheath","lat":-33.633635,"lon":150.284323,"d":34.9486},{"name":"Medlow Bath","lat":-33.67367,"lon":150.280747,"d":39.7479},{"name":"Katoomba","lat":-33.711808,"lon":150.311071,"d":45.5922},{"name":"Leura","lat":-33.711997,"lon":150.330826,"d":47.9392},{"name":"Wentworth Falls","lat":-33.709607,"lon":150.376321,"d":52.7645},{"name":"Bullaburra","lat":-33.723418,"lon":150.414852,"d":57.6994},{"name":"Lawson","lat":-33.719008,"lon":150.429896,"d":59.311},{"name":"Hazelbrook","lat":-33.723745,"lon":150.454246,"d":61.7955},{"name":"Woodford","lat":-33.735658,"lon":150.481888,"d":64.8861},{"name":"Linden","lat":-33.714868,"lon":150.505335,"d":68.404},{"name":"Faulconbridge","lat":-33.696546,"lon":150.535018,"d":72.215},{"name":"Springwood","lat":-33.698948,"lon":150.56368,"d":75.4307},{"name":"Valley Heights","lat":-33.704432,"lon":150.583737,"d":77.7007},{"name":"Warrimoo","lat":-33.721313,"lon":150.602612,"d":80.8595},{"name":"Blaxland","lat":-33.743662,"lon":150.60974,"d":83.6133},{"name":"Glenbrook","lat":-33.76902,"lon":150.620927,"d":87.9805},{"name":"Lapstone","lat":-33.773519,"lon":150.642862,"d":91.4014},{"name":"Emu Plains","lat":-33.745679,"lon":150.671468,"d":97.4313},{"name":"Penrith","lat":-33.749942,"lon":150.696183,"d":99.8467},{"name":"Blacktown","lat":-33.768562,"lon":150.907362,"d":119.9782},{"name":"Parramatta","lat":-33.817277,"lon":151.005239,"d":131.6114},{"name":"Strathfield","lat":-33.871279,"lon":151.09418,"d":142.9671},{"name":"Redfern","lat":-33.891973,"lon":151.198243,"d":153.5358},{"name":"Central","lat":-33.883258,"lon":151.205701,"d":154.7244}]},{"id":"SHL","name":"Southern Highlands Line","color":"#00954C","shape":[[-34.758241,149.719385],[-34.753854,149.723168],[-34.752208,149.725434],[-34.746909,149.741737],[-34.745193,149.744841],[-34.742579,149.746798],[-34.729733,149.751435],[-34.726188,149.754734],[-34.723554,149.759187],[-34.72303,149.762069],[-34.724133,149.798127],[-34.723084,149.807037],[-34.721339,149.814386],[-34.721553,149.816231],[-34.723679,149.82299],[-34.723576,149.826017],[-34.722771,149.828323],[-34.720156,149.831622],[-34.709198,149.837125],[-34.707468,149.840346],[-34.707235,149.8439],[-34.706618,149.846227],[-34.704416,149.848931],[-34.690821,149.852816],[-34.688601,149.854202],[-34.686561,149.857035],[-34.684863,149.862955],[-34.68493,149.866101],[-34.685714,149.868586],[-34.691488,149.875583],[-34.692399,149.877111],[-34.693232,149.879953],[-34.693987,149.929222],[-34.698653,149.954231],[-34.700435,149.958077],[-34.706244,149.963489],[-34.708617,149.966657],[-34.711132,149.972298],[-34.711961,149.97617],[-34.71213,149.981855],[-34.709481,150.008669],[-34.709853,150.010289],[-34.711607,150.013722],[-34.714037,150.022668],[-34.714048,150.024317],[-34.712971,150.02802],[-34.712791,150.030389],[-34.716684,150.054946],[-34.718392,150.090582],[-34.717349,150.094666],[-34.715165,150.097953],[-34.713118,150.099435],[-34.704683,150.103412],[-34.703448,150.104506],[-34.702119,150.106965],[-34.700625,150.115646],[-34.700484,150.119411],[-34.701354,150.131787],[-34.704107,150.139669],[-34.704119,150.14281],[-34.699978,150.15048],[-34.698484,150.151892],[-34.69506,150.153374],[-34.693723,150.154988],[-34.683214,150.179149],[-34.682889,150.183277],[-34.684426,150.18942],[-34.684637,150.191972],[-34.684273,150.19629],[-34.68312,150.200372],[-34.679804,150.205517],[-34.673379,150.210701],[-34.671426,150.21323],[-34.668814,150.22003],[-34.668403,150.223547],[-34.66965,150.227312],[-34.669768,150.229941],[-34.669193,150.23192],[-34.666556,150.236982],[-34.665956,150.240464],[-34.668262,150.24657],[-34.673297,150.254922],[-34.673979,150.257228],[-34.673791,150.261852],[-34.671461,150.268992],[-34.667447,150.27487],[-34.665647,150.279043],[-34.660675,150.283297],[-34.658615,150.286375],[-34.657798,150.288853],[-34.65516,150.30273],[-34.650096,150.31353],[-34.648424,150.318766],[-34.646691,150.320603],[-34.644397,150.32141],[-34.638251,150.319814],[-34.634957,150.320026],[-34.632828,150.320849],[-34.629463,150.323331],[-34.626852,150.324049],[-34.624805,150.323413],[-34.623499,150.322343],[-34.621028,150.318191],[-34.619469,150.316749],[-34.617427,150.316045],[-34.615219,150.31638],[-34.61291,150.318234],[-34.605938,150.329866],[-34.603494,150.332575],[-34.601924,150.332814],[-34.600899,150.332343],[-34.598752,150.328969],[-34.597732,150.328141],[-34.596352,150.327884],[-34.594433,150.329049],[-34.591313,150.334854],[-34.591172,150.33685],[-34.592213,150.341098],[-34.591695,150.343239],[-34.590695,150.344521],[-34.589479,150.345175],[-34.575082,150.348583],[-34.571629,150.349953],[-34.569007,150.35266],[-34.56671,150.356956],[-34.56456,150.359834],[-34.558982,150.365213],[-34.556371,150.367114],[-34.530884,150.380026],[-34.526506,150.380918],[-34.506889,150.382404],[-34.50445,150.383108],[-34.502205,150.384475],[-34.499144,150.388124],[-34.489543,150.407261],[-34.487698,150.409613],[-34.47378,150.419511],[-34.471428,150.419997],[-34.461959,150.420103],[-34.459365,150.421155],[-34.457758,150.422829],[-34.456868,150.425022],[-34.453632,150.438984],[-34.45332,150.443537],[-34.451905,150.450913],[-34.449723,150.455905],[-34.445168,150.46216],[-34.444461,150.467554],[-34.443439,150.470004],[-34.438307,150.480676],[-34.435625,150.483827],[-34.433165,150.488425],[-34.424408,150.496221],[-34.418929,150.499629],[-34.417009,150.50267],[-34.414571,150.50512],[-34.413883,150.507484],[-34.414441,150.514986],[-34.413306,150.517432],[-34.41197,150.518361],[-34.403817,150.52142],[-34.398023,150.524664],[-34.397102,150.525997],[-34.39675,150.527672],[-34.397497,150.530947],[-34.397397,150.533166],[-34.396649,150.53461],[-34.395097,150.535638],[-34.393439,150.535585],[-34.39204,150.534579],[-34.390593,150.530389],[-34.389205,150.528687],[-34.384639,150.52609],[-34.383319,150.52601],[-34.381887,150.526618],[-34.377728,150.529496],[-34.376707,150.530751],[-34.376124,150.533064],[-34.376549,150.537659],[-34.375855,150.539379],[-34.374204,150.541579],[-34.370366,150.544082],[-34.364606,150.545055],[-34.361104,150.546548],[-34.357838,150.549819],[-34.353577,150.552533],[-34.348155,150.560557],[-34.346655,150.561776],[-34.344407,150.561841],[-34.340775,150.559649],[-34.339322,150.559824],[-34.335731,150.561564],[-34.329208,150.560404],[-34.325947,150.558418],[-34.323667,150.559024],[-34.322536,150.560538],[-34.322182,150.562527],[-34.322514,150.564068],[-34.324503,150.567826],[-34.324173,150.572271],[-34.324999,150.575615],[-34.324785,150.577837],[-34.323934,150.579364],[-34.322638,150.580331],[-34.316768,150.58087],[-34.314775,150.582343],[-34.314002,150.584287],[-34.312442,150.594033],[-34.310696,150.596452],[-34.30871,150.596924],[-34.306983,150.596177],[-34.305956,150.59487],[-34.304228,150.590894],[-34.298455,150.586799],[-34.29432,150.58194],[-34.292134,150.580444],[-34.286839,150.578993],[-34.280956,150.579384],[-34.276342,150.576722],[-34.26952,150.575296],[-34.265314,150.576262],[-34.261674,150.575106],[-34.259972,150.575642],[-34.257408,150.578065],[-34.254052,150.57929],[-34.250954,150.582977],[-34.245546,150.584128],[-34.243518,150.583928],[-34.240551,150.581353],[-34.236155,150.579648],[-34.233575,150.579666],[-34.232235,150.580724],[-34.230218,150.583666],[-34.223903,150.58972],[-34.21399,150.593615],[-34.210689,150.598786],[-34.208494,150.600287],[-34.206782,150.600306],[-34.205083,150.599423],[-34.203946,150.597919],[-34.201477,150.59231],[-34.200188,150.591166],[-34.198654,150.590808],[-34.196228,150.591983],[-34.191621,150.598851],[-34.189165,150.600649],[-34.187357,150.602967],[-34.182018,150.607127],[-34.175654,150.607121],[-34.173945,150.605858],[-34.171491,150.602125],[-34.169943,150.601671],[-34.168432,150.602263],[-34.167453,150.603586],[-34.167134,150.605348],[-34.167542,150.60698],[-34.168708,150.608304],[-34.173137,150.608914],[-34.179723,150.61285],[-34.187108,150.614009],[-34.188662,150.615051],[-34.189491,150.617743],[-34.188531,150.620622],[-34.188472,150.6228],[-34.189061,150.624135],[-34.190957,150.626275],[-34.191414,150.627615],[-34.191123,150.633284],[-34.192043,150.637211],[-34.194218,150.640606],[-34.20033,150.645233],[-34.201347,150.647069],[-34.201824,150.649142],[-34.201477,150.652281],[-34.19913,150.658677],[-34.197983,150.660672],[-34.195491,150.66238],[-34.190451,150.662624],[-34.186543,150.663898],[-34.184656,150.665735],[-34.183516,150.668712],[-34.180429,150.680319],[-34.180173,150.682627],[-34.181698,150.689248],[-34.181254,150.695086],[-34.182565,150.701143],[-34.183271,150.710906],[-34.182869,150.717689],[-34.181848,150.721209],[-34.180792,150.722807],[-34.173592,150.730061],[-34.168553,150.731659],[-34.16439,150.734832],[-34.161888,150.735026],[-34.157013,150.732998],[-34.154487,150.732984],[-34.151078,150.734622],[-34.144461,150.735416],[-34.137572,150.738009],[-34.124425,150.744628],[-34.121058,150.744741],[-34.115017,150.742785],[-34.102542,150.745229],[-34.100045,150.746328],[-34.091471,150.751876],[-34.087875,150.755697],[-34.085223,150.760799],[-34.080989,150.778793],[-34.079785,150.781204],[-34.075262,150.786781],[-34.073688,150.789651],[-34.07022,150.804995],[-34.068199,150.808645],[-34.06351,150.814323]],"shapeLen":170.062,"stations":[{"name":"Goulburn","lat":-34.758228,"lon":149.719363,"d":0.0001},{"name":"Marulan","lat":-34.709562,"lon":150.00599,"d":31.8485},{"name":"Tallong","lat":-34.718358,"lon":150.086366,"d":39.368},{"name":"Wingello","lat":-34.692201,"lon":150.158419,"d":47.6197},{"name":"Penrose","lat":-34.672413,"lon":150.212006,"d":53.3704},{"name":"Bundanoon","lat":-34.656036,"lon":150.29936,"d":62.5203},{"name":"Exeter","lat":-34.613561,"lon":150.317561,"d":68.8578},{"name":"Moss Vale","lat":-34.54791,"lon":150.371569,"d":78.991},{"name":"Burradoo","lat":-34.494148,"lon":150.397975,"d":85.8109},{"name":"Bowral","lat":-34.478192,"lon":150.416514,"d":88.3334},{"name":"Mittagong","lat":-34.452546,"lon":150.448161,"d":93.1588},{"name":"Yerrinbool","lat":-34.371719,"lon":150.543455,"d":108.291},{"name":"Bargo","lat":-34.291068,"lon":150.580062,"d":121.6806},{"name":"Tahmoor","lat":-34.223417,"lon":150.590116,"d":130.01},{"name":"Picton","lat":-34.179173,"lon":150.612636,"d":139.565},{"name":"Douglas Park","lat":-34.183204,"lon":150.710283,"d":151.4467},{"name":"Menangle","lat":-34.125433,"lon":150.744271,"d":159.3803},{"name":"Menangle Park","lat":-34.103611,"lon":150.74502,"d":161.8512},{"name":"Macarthur","lat":-34.072039,"lon":150.797091,"d":168.1634},{"name":"Campbelltown","lat":-34.064237,"lon":150.813882,"d":169.9762}]},{"id":"BMT-X000","name":"Blue Mountains Line","color":"#F99D1C","shape":[[-33.425653,149.583279],[-33.424237,149.584462],[-33.423378,149.586605],[-33.421959,149.609748],[-33.422119,149.614027],[-33.423639,149.623439],[-33.425265,149.626773],[-33.428694,149.629273],[-33.430402,149.631905],[-33.433704,149.652721],[-33.444252,149.679125],[-33.445719,149.681498],[-33.447759,149.683537],[-33.455732,149.687935],[-33.459366,149.690736],[-33.466288,149.699453],[-33.484169,149.717286],[-33.485706,149.718015],[-33.487417,149.717966],[-33.490866,149.715661],[-33.492523,149.71564],[-33.493755,149.716495],[-33.497357,149.720917],[-33.499371,149.724276],[-33.500854,149.730067],[-33.500589,149.731598],[-33.498707,149.735034],[-33.498849,149.736646],[-33.500576,149.740206],[-33.499423,149.745103],[-33.49982,149.746735],[-33.50147,149.748208],[-33.504234,149.747992],[-33.505764,149.7485],[-33.506691,149.749681],[-33.507944,149.752836],[-33.511873,149.755067],[-33.512675,149.757224],[-33.511398,149.761278],[-33.511853,149.76364],[-33.513348,149.764905],[-33.517013,149.764985],[-33.518131,149.766034],[-33.518614,149.767264],[-33.518216,149.769828],[-33.516637,149.771166],[-33.511727,149.770445],[-33.509992,149.770983],[-33.508875,149.772841],[-33.509137,149.775261],[-33.510414,149.777091],[-33.514218,149.779899],[-33.517723,149.780698],[-33.521037,149.780683],[-33.522697,149.781692],[-33.523815,149.783564],[-33.524956,149.791955],[-33.526178,149.794486],[-33.528612,149.796608],[-33.534428,149.797154],[-33.536208,149.799061],[-33.536448,149.800582],[-33.53626,149.801699],[-33.535122,149.803478],[-33.532373,149.805069],[-33.530767,149.807132],[-33.529899,149.817917],[-33.529434,149.819393],[-33.52832,149.820601],[-33.524956,149.82162],[-33.523848,149.8237],[-33.523369,149.831589],[-33.525914,149.839504],[-33.526053,149.843223],[-33.524531,149.846283],[-33.521638,149.849502],[-33.521355,149.851592],[-33.522028,149.855253],[-33.521536,149.857266],[-33.520721,149.858394],[-33.516912,149.861113],[-33.515886,149.863717],[-33.516354,149.866328],[-33.518736,149.870594],[-33.519992,149.871178],[-33.522658,149.870632],[-33.523972,149.871057],[-33.52479,149.872265],[-33.525628,149.87505],[-33.528908,149.878819],[-33.529593,149.881015],[-33.53062,149.891705],[-33.530425,149.894146],[-33.529541,149.89621],[-33.524769,149.90278],[-33.52403,149.909389],[-33.523457,149.910962],[-33.522495,149.912064],[-33.519936,149.912943],[-33.518799,149.914091],[-33.518585,149.916003],[-33.519357,149.918764],[-33.519062,149.920255],[-33.517827,149.921417],[-33.51558,149.921545],[-33.514382,149.922702],[-33.51425,149.926562],[-33.512458,149.929622],[-33.511924,149.931558],[-33.512652,149.937528],[-33.508686,149.944842],[-33.508561,149.94614],[-33.509062,149.947931],[-33.508808,149.949388],[-33.506695,149.951245],[-33.506043,149.952842],[-33.506237,149.961015],[-33.508263,149.963954],[-33.508768,149.965582],[-33.508535,149.967448],[-33.507531,149.969036],[-33.507212,149.970623],[-33.508604,149.974325],[-33.507667,149.978275],[-33.508707,149.981205],[-33.508302,149.985318],[-33.50965,149.989631],[-33.50985,149.992808],[-33.510501,149.994357],[-33.512842,149.997375],[-33.514883,150.005913],[-33.516204,150.006874],[-33.518848,150.006297],[-33.520047,150.006647],[-33.52101,150.008101],[-33.520949,150.009951],[-33.519538,150.011422],[-33.516372,150.011025],[-33.513939,150.012582],[-33.512417,150.012887],[-33.510954,150.012563],[-33.508674,150.010792],[-33.505703,150.010027],[-33.502856,150.011346],[-33.499781,150.011838],[-33.498498,150.013006],[-33.492612,150.021715],[-33.490453,150.027721],[-33.487836,150.030056],[-33.477247,150.034528],[-33.460613,150.038837],[-33.458071,150.038738],[-33.454739,150.037354],[-33.453013,150.037155],[-33.450941,150.037593],[-33.447086,150.039755],[-33.443355,150.038981],[-33.441958,150.039185],[-33.440848,150.039998],[-33.440048,150.041388],[-33.439807,150.04312],[-33.440429,150.047752],[-33.439802,150.049397],[-33.438643,150.050572],[-33.412989,150.058681],[-33.411704,150.060744],[-33.411316,150.06396],[-33.410602,150.065632],[-33.405992,150.069536],[-33.404451,150.07223],[-33.404167,150.075238],[-33.405989,150.088535],[-33.405059,150.091418],[-33.402371,150.094906],[-33.402128,150.097825],[-33.40581,150.106072],[-33.408542,150.109805],[-33.409684,150.110667],[-33.411355,150.110657],[-33.41371,150.108389],[-33.415067,150.107881],[-33.418415,150.109235],[-33.426684,150.109368],[-33.440783,150.112962],[-33.453245,150.116799],[-33.456317,150.117938],[-33.462338,150.121447],[-33.468722,150.122767],[-33.470684,150.12415],[-33.472786,150.126733],[-33.473724,150.128896],[-33.474448,150.132514],[-33.475599,150.134476],[-33.476999,150.135744],[-33.480715,150.137661],[-33.482338,150.139553],[-33.483391,150.142329],[-33.483405,150.145573],[-33.479131,150.163229],[-33.47653,150.170915],[-33.468786,150.183142],[-33.46833,150.1919],[-33.468793,150.192927],[-33.470537,150.194084],[-33.471125,150.195338],[-33.471071,150.196864],[-33.469841,150.199039],[-33.470671,150.20096],[-33.472933,150.202586],[-33.477382,150.203548],[-33.478703,150.20473],[-33.481328,150.208545],[-33.484532,150.2103],[-33.486378,150.214194],[-33.490792,150.215648],[-33.495974,150.223563],[-33.496434,150.226372],[-33.495233,150.228694],[-33.49149,150.230776],[-33.488478,150.239519],[-33.483752,150.245021],[-33.481209,150.245994],[-33.478751,150.24573],[-33.472897,150.23993],[-33.471592,150.239375],[-33.469385,150.240332],[-33.468673,150.241855],[-33.46867,150.243294],[-33.469539,150.245067],[-33.471898,150.247139],[-33.473541,150.25074],[-33.476958,150.251661],[-33.479412,150.253466],[-33.48181,150.254444],[-33.484981,150.258295],[-33.486499,150.261675],[-33.491655,150.266474],[-33.49521,150.268154],[-33.497536,150.269932],[-33.500966,150.273464],[-33.502621,150.276389],[-33.504234,150.278003],[-33.510371,150.281568],[-33.512907,150.281389],[-33.513978,150.280487],[-33.518173,150.27375],[-33.519715,150.272969],[-33.522939,150.27255],[-33.526506,150.274022],[-33.528707,150.273519],[-33.529894,150.27202],[-33.530788,150.268379],[-33.534053,150.264096],[-33.541186,150.260598],[-33.544721,150.260869],[-33.548641,150.262658],[-33.554415,150.263742],[-33.558814,150.261548],[-33.566295,150.259008],[-33.568867,150.258929],[-33.571853,150.260626],[-33.573624,150.2609],[-33.575252,150.260366],[-33.578137,150.258113],[-33.583846,150.257838],[-33.588188,150.256951],[-33.5902,150.257684],[-33.596457,150.263529],[-33.601119,150.263963],[-33.606226,150.267964],[-33.609926,150.267513],[-33.61489,150.268895],[-33.617496,150.272735],[-33.620686,150.274612],[-33.622318,150.27671],[-33.625351,150.279003],[-33.626469,150.282754],[-33.627806,150.284031],[-33.638361,150.284668],[-33.639482,150.284217],[-33.641066,150.282609],[-33.642179,150.282306],[-33.650746,150.284754],[-33.65227,150.284069],[-33.654336,150.281491],[-33.658121,150.278836],[-33.662813,150.277574],[-33.666086,150.279731],[-33.67026,150.279678],[-33.676983,150.282238],[-33.687845,150.29049],[-33.692293,150.291333],[-33.695135,150.290042],[-33.698123,150.291457],[-33.701375,150.290805],[-33.703457,150.291653],[-33.705635,150.29434],[-33.705979,150.296112],[-33.705376,150.299613],[-33.707687,150.303155],[-33.707859,150.307531],[-33.708802,150.308924],[-33.711445,150.310817],[-33.712095,150.312181],[-33.711501,150.315004],[-33.707186,150.317818],[-33.706349,150.320378],[-33.706756,150.32183],[-33.708612,150.323669],[-33.710326,150.326749],[-33.712,150.330904],[-33.711838,150.334667],[-33.712546,150.338208],[-33.712215,150.33993],[-33.710397,150.342437],[-33.709682,150.349023],[-33.708563,150.352855],[-33.708871,150.354499],[-33.710652,150.357063],[-33.710532,150.362592],[-33.708661,150.365807],[-33.706158,150.368338],[-33.70559,150.371522],[-33.707566,150.375502],[-33.712057,150.377554],[-33.71407,150.380068],[-33.715406,150.382747],[-33.718044,150.385699],[-33.719385,150.386343],[-33.722213,150.386188],[-33.72465,150.387009],[-33.725972,150.388148],[-33.727189,150.3903],[-33.727163,150.392795],[-33.725272,150.396364],[-33.725835,150.400961],[-33.723437,150.405492],[-33.724416,150.41009],[-33.72408,150.413391],[-33.722604,150.417617],[-33.72374,150.420857],[-33.723768,150.422206],[-33.72087,150.426515],[-33.718338,150.431738],[-33.718405,150.434588],[-33.719249,150.437126],[-33.719369,150.439234],[-33.718502,150.443107],[-33.720781,150.450935],[-33.724077,150.454724],[-33.725753,150.457538],[-33.729556,150.460484],[-33.730699,150.46366],[-33.733513,150.466468],[-33.733977,150.468543],[-33.733519,150.471281],[-33.733659,150.47364],[-33.735322,150.477629],[-33.735789,150.480822],[-33.734532,150.483882],[-33.734265,150.486324],[-33.733556,150.487369],[-33.731485,150.48821],[-33.729836,150.490049],[-33.727558,150.490554],[-33.724816,150.493144],[-33.723307,150.49377],[-33.720332,150.493911],[-33.716785,150.496878],[-33.715531,150.500225],[-33.714844,150.504911],[-33.715821,150.507812],[-33.715842,150.509079],[-33.714448,150.511757],[-33.712587,150.520619],[-33.710523,150.523085],[-33.707568,150.525015],[-33.706426,150.528238],[-33.705574,150.529422],[-33.699716,150.533582],[-33.69715,150.534466],[-33.695346,150.535934],[-33.694655,150.537522],[-33.694737,150.540378],[-33.693044,150.543046],[-33.69287,150.544787],[-33.693419,150.546068],[-33.696549,150.549803],[-33.701245,150.558481],[-33.700958,150.561182],[-33.698128,150.565056],[-33.698211,150.570162],[-33.698978,150.571935],[-33.701677,150.573197],[-33.702637,150.574367],[-33.702858,150.575755],[-33.702238,150.580639],[-33.702498,150.581936],[-33.705608,150.584495],[-33.710353,150.586442],[-33.711702,150.588507],[-33.712401,150.592017],[-33.713557,150.593304],[-33.71478,150.59358],[-33.717924,150.592748],[-33.720937,150.593743],[-33.721625,150.595793],[-33.720787,150.599568],[-33.721269,150.602549],[-33.722326,150.604127],[-33.725869,150.605742],[-33.728873,150.605573],[-33.732128,150.604352],[-33.735276,150.605858],[-33.739725,150.605853],[-33.743046,150.608913],[-33.744574,150.611285],[-33.745229,150.614822],[-33.746041,150.615812],[-33.747315,150.616304],[-33.748491,150.616019],[-33.749428,150.615136],[-33.752618,150.609996],[-33.753824,150.607011],[-33.755216,150.606177],[-33.756628,150.606301],[-33.758761,150.607937],[-33.761699,150.608501],[-33.763445,150.610363],[-33.765707,150.611842],[-33.76787,150.616035],[-33.769109,150.621226],[-33.770155,150.622671],[-33.772122,150.623171],[-33.774412,150.62178],[-33.77596,150.621784],[-33.777003,150.622592],[-33.780117,150.627256],[-33.780053,150.629198],[-33.778136,150.632639],[-33.777906,150.640354],[-33.776654,150.642071],[-33.774057,150.642828],[-33.770069,150.642027],[-33.76711,150.643198],[-33.764245,150.641925],[-33.761293,150.642575],[-33.757431,150.641742],[-33.752467,150.644827],[-33.751162,150.644797],[-33.74859,150.643587],[-33.747241,150.643742],[-33.744646,150.646293],[-33.743992,150.648133],[-33.744632,150.65043],[-33.747774,150.652994],[-33.748502,150.65556],[-33.744835,150.675896],[-33.744647,150.678764],[-33.747956,150.686104],[-33.751115,150.700529],[-33.756221,150.711614],[-33.758906,150.722791],[-33.759133,150.726211],[-33.757582,150.745963],[-33.75768,150.748745],[-33.772371,150.837264],[-33.772345,150.840929],[-33.771727,150.844285],[-33.764815,150.864934],[-33.763474,150.871827],[-33.76367,150.879402],[-33.767777,150.903648],[-33.769619,150.911222],[-33.772758,150.916839],[-33.773993,150.920253],[-33.774412,150.923515],[-33.774018,150.931117],[-33.77434,150.936181],[-33.776309,150.941894],[-33.779256,150.94642],[-33.783218,150.94976],[-33.787252,150.951447],[-33.796528,150.952867],[-33.7992,150.954341],[-33.801795,150.956884],[-33.80319,150.959764],[-33.804526,150.966311],[-33.80797,150.975096],[-33.808257,150.977856],[-33.807747,150.983744],[-33.808574,150.988292],[-33.810974,150.993148],[-33.815118,150.997403],[-33.817561,151.005682],[-33.82068,151.007834],[-33.826621,151.007368],[-33.830614,151.009117],[-33.84105,151.024355],[-33.849263,151.03305],[-33.861365,151.04172],[-33.86349,151.044661],[-33.864338,151.048057],[-33.864522,151.056454],[-33.863791,151.062642],[-33.865057,151.072092],[-33.864583,151.077797],[-33.864929,151.080612],[-33.866606,151.086265],[-33.869335,151.091534],[-33.875986,151.099743],[-33.87814,151.108264],[-33.884996,151.118993],[-33.888568,151.128962],[-33.889516,151.13265],[-33.88994,151.138013],[-33.893412,151.148347],[-33.893987,151.151404],[-33.893556,151.156913],[-33.894575,151.161446],[-33.894054,151.16616],[-33.894215,151.168458],[-33.897585,151.176881],[-33.897689,151.180966],[-33.897277,151.183908],[-33.892594,151.19718],[-33.890867,151.199569],[-33.883503,151.206168]],"shapeLen":238.298,"stations":[{"name":"Bathurst","lat":-33.425632,"lon":149.583246,"d":0.0002},{"name":"Tarana","lat":-33.524183,"lon":149.907385,"d":41.4144},{"name":"Rydal","lat":-33.483804,"lon":150.03182,"d":58.1637},{"name":"Lithgow","lat":-33.480577,"lon":150.156977,"d":83.636},{"name":"Mount Victoria","lat":-33.588146,"lon":150.256964,"d":112.5281},{"name":"Katoomba","lat":-33.711725,"lon":150.311143,"d":129.1975},{"name":"Springwood","lat":-33.698948,"lon":150.56368,"d":159.0287},{"name":"Penrith","lat":-33.750033,"lon":150.696166,"d":183.4418},{"name":"Westmead","lat":-33.808365,"lon":150.987747,"d":213.2596},{"name":"Parramatta","lat":-33.817277,"lon":151.005239,"d":215.204},{"name":"Central","lat":-33.883165,"lon":151.205523,"d":238.2926}]},{"id":"T1-X0001","name":"T1 North Shore and Western Line","color":"#F99D1C","shape":[[-33.88404,151.206967],[-33.888074,151.202138],[-33.891193,151.199401],[-33.893262,151.196231],[-33.897387,151.18392],[-33.897807,151.180972],[-33.897696,151.176869],[-33.894183,151.167539],[-33.894707,151.161833],[-33.893726,151.15691],[-33.894163,151.152813],[-33.893741,151.14912],[-33.890299,151.139006],[-33.88941,151.131322],[-33.886471,151.122411],[-33.883446,151.115911],[-33.878627,151.109067],[-33.876095,151.09967],[-33.870614,151.092783],[-33.867806,151.088316],[-33.86503,151.080562],[-33.864689,151.077795],[-33.865175,151.071668],[-33.863902,151.062644],[-33.864658,151.055896],[-33.864466,151.04809],[-33.863321,151.043852],[-33.861428,151.041613],[-33.85132,151.034475],[-33.847358,151.03078],[-33.83917,151.021827],[-33.830837,151.009062],[-33.826776,151.007224],[-33.820699,151.007724],[-33.818984,151.006883],[-33.817724,151.005527],[-33.816838,151.003744],[-33.815201,150.997256],[-33.813998,150.995546],[-33.810579,150.992423],[-33.808352,150.987164],[-33.807826,150.983745],[-33.808345,150.97784],[-33.808056,150.975077],[-33.804599,150.966279],[-33.803404,150.960217],[-33.802297,150.957413],[-33.800673,150.95536],[-33.797032,150.95296],[-33.788119,150.951441],[-33.783743,150.949955],[-33.780555,150.947632],[-33.777837,150.944423],[-33.775345,150.93949],[-33.774632,150.937006],[-33.774106,150.931512],[-33.774754,150.927828],[-33.773951,150.924702],[-33.773744,150.919722],[-33.772621,150.916815],[-33.769759,150.911855],[-33.768641,150.908661],[-33.767658,150.907349],[-33.766093,150.906482],[-33.755836,150.903647],[-33.747968,150.900302],[-33.740531,150.899758],[-33.738232,150.897846],[-33.732607,150.890556],[-33.720757,150.881015],[-33.711708,150.87595],[-33.702129,150.872755],[-33.678252,150.85983],[-33.667477,150.856424],[-33.662581,150.852991],[-33.660082,150.852294],[-33.652339,150.85181],[-33.6503,150.851149],[-33.628525,150.834179],[-33.627087,150.831921],[-33.62625,150.828684],[-33.625936,150.825265],[-33.62396,150.820562],[-33.619725,150.815969],[-33.614895,150.812479],[-33.613307,150.810143],[-33.610147,150.791839],[-33.607671,150.785369],[-33.601555,150.758358],[-33.599009,150.752769]],"shapeLen":60.5071,"stations":[{"name":"Central","lat":-33.884052,"lon":151.206982,"d":0},{"name":"Redfern","lat":-33.892164,"lon":151.198457,"d":1.1966},{"name":"Ashfield","lat":-33.887713,"lon":151.125498,"d":8.2764},{"name":"Croydon","lat":-33.883296,"lon":151.115325,"d":9.3321},{"name":"Burwood","lat":-33.877352,"lon":151.104193,"d":10.5802},{"name":"Strathfield","lat":-33.871689,"lon":151.09379,"d":11.7515},{"name":"Homebush","lat":-33.867061,"lon":151.086342,"d":12.6187},{"name":"Flemington","lat":-33.86492,"lon":151.06993,"d":14.1876},{"name":"Lidcombe","lat":-33.863606,"lon":151.045036,"d":16.5173},{"name":"Auburn","lat":-33.849328,"lon":151.032818,"d":18.4979},{"name":"Clyde","lat":-33.836059,"lon":151.017023,"d":20.5789},{"name":"Granville","lat":-33.832975,"lon":151.012116,"d":21.1471},{"name":"Harris Park","lat":-33.823568,"lon":151.007692,"d":22.3571},{"name":"Parramatta","lat":-33.817403,"lon":151.005245,"d":23.1101},{"name":"Westmead","lat":-33.808609,"lon":150.987996,"d":25.0359},{"name":"Wentworthville","lat":-33.807254,"lon":150.972497,"d":26.4982},{"name":"Pendle Hill","lat":-33.801276,"lon":150.956386,"d":28.1533},{"name":"Toongabbie","lat":-33.787238,"lon":150.951573,"d":29.8217},{"name":"Seven Hills","lat":-33.774426,"lon":150.936309,"d":31.9172},{"name":"Blacktown","lat":-33.768136,"lon":150.908011,"d":34.7301},{"name":"Marayong","lat":-33.746216,"lon":150.900209,"d":37.2959},{"name":"Quakers Hill","lat":-33.727681,"lon":150.88647,"d":39.8252},{"name":"Schofields","lat":-33.704684,"lon":150.873864,"d":42.6597},{"name":"Riverstone","lat":-33.679388,"lon":150.860385,"d":45.7365},{"name":"Vineyard","lat":-33.650389,"lon":150.851158,"d":49.1145},{"name":"Mulgrave","lat":-33.626576,"lon":150.830146,"d":52.4475},{"name":"Windsor","lat":-33.613686,"lon":150.811017,"d":54.845},{"name":"Clarendon","lat":-33.608591,"lon":150.787992,"d":57.0614},{"name":"East Richmond","lat":-33.601751,"lon":150.759067,"d":59.848},{"name":"Richmond","lat":-33.598903,"lon":150.752848,"d":60.5063}]},{"id":"M1","name":"M1 Metro North West and Bankstown Line","color":"#168388","shape":[[-33.691688,150.905647],[-33.690323,150.910102],[-33.690118,150.913413],[-33.688961,150.919135],[-33.68922,150.921199],[-33.690352,150.922964],[-33.696865,150.928063],[-33.707778,150.932115],[-33.717778,150.937481],[-33.726376,150.941368],[-33.73384,150.946267],[-33.735061,150.947833],[-33.736461,150.950894],[-33.737355,150.954959],[-33.737254,150.958999],[-33.736255,150.961441],[-33.732073,150.966386],[-33.730959,150.968577],[-33.728697,150.983902],[-33.727058,150.989991],[-33.727399,150.992693],[-33.731345,150.999726],[-33.732076,151.002308],[-33.732048,151.005178],[-33.730223,151.013542],[-33.732088,151.025396],[-33.732977,151.027336],[-33.735591,151.030392],[-33.737903,151.034066],[-33.742333,151.044939],[-33.747897,151.052156],[-33.756734,151.065323],[-33.759697,151.068811],[-33.764158,151.07641],[-33.769325,151.081421],[-33.772072,151.081981],[-33.776917,151.084025],[-33.779328,151.086545],[-33.780005,151.088686],[-33.780043,151.090795],[-33.774731,151.108033],[-33.774467,151.110816],[-33.774973,151.113878],[-33.776467,151.116809],[-33.786398,151.130319],[-33.787925,151.131687],[-33.791298,151.133401],[-33.793173,151.135377],[-33.793954,151.137171],[-33.795794,151.145172],[-33.796012,151.147458],[-33.795656,151.150075],[-33.79286,151.155547],[-33.788701,151.160565],[-33.781923,151.164023],[-33.779575,151.167196],[-33.778883,151.169549],[-33.778892,151.172842],[-33.779719,151.175547],[-33.780883,151.17734],[-33.783389,151.17929],[-33.789479,151.180809],[-33.803279,151.181108],[-33.807634,151.180454],[-33.810381,151.181263],[-33.812025,151.182699],[-33.823971,151.197688],[-33.827377,151.20098],[-33.829624,151.205836],[-33.831787,151.20771],[-33.833727,151.20799],[-33.83891,151.206906],[-33.84303,151.203601],[-33.844561,151.202968],[-33.84935,151.204104],[-33.855449,151.202513],[-33.860471,151.202762],[-33.861918,151.203167],[-33.862904,151.20448],[-33.862856,151.20811],[-33.863344,151.209629],[-33.86441,151.210623],[-33.865605,151.210836],[-33.871895,151.209361],[-33.881202,151.208723],[-33.891435,151.200818],[-33.893263,151.199891],[-33.895448,151.199748],[-33.900804,151.201116],[-33.903985,151.199748],[-33.905312,151.197987],[-33.90756,151.192093],[-33.90712,151.181975],[-33.907876,151.176865],[-33.909241,151.173832],[-33.913771,151.167215]],"shapeLen":52.3977,"stations":[{"name":"Tallawong","lat":-33.691705,"lon":150.905653,"d":0},{"name":"Rouse Hill","lat":-33.691959,"lon":150.924357,"d":1.9106},{"name":"Kellyville","lat":-33.713519,"lon":150.935227,"d":4.5251},{"name":"Bella Vista","lat":-33.730719,"lon":150.944037,"d":6.6061},{"name":"Norwest","lat":-33.734282,"lon":150.963851,"d":8.8579},{"name":"Hills Showground","lat":-33.727755,"lon":150.987427,"d":11.2167},{"name":"Castle Hill","lat":-33.731469,"lon":151.00768,"d":13.2612},{"name":"Cherrybrook","lat":-33.736728,"lon":151.032084,"d":15.7477},{"name":"Epping","lat":-33.772875,"lon":151.082278,"d":22.0288},{"name":"Macquarie University","lat":-33.777652,"lon":151.118242,"d":26.0191},{"name":"Macquarie Park","lat":-33.784982,"lon":151.128337,"d":27.258},{"name":"North Ryde","lat":-33.794171,"lon":151.13806,"d":28.6681},{"name":"Chatswood","lat":-33.797469,"lon":151.180988,"d":35.1909},{"name":"Crows Nest","lat":-33.825849,"lon":151.199299,"d":39.0402},{"name":"Victoria Cross","lat":-33.836219,"lon":151.207494,"d":40.5777},{"name":"Barangaroo","lat":-33.859309,"lon":151.202548,"d":43.278},{"name":"Martin Place","lat":-33.867135,"lon":151.210568,"d":44.6781},{"name":"Gadigal","lat":-33.873814,"lon":151.208121,"d":45.4385},{"name":"Central","lat":-33.884142,"lon":151.206436,"d":46.6448},{"name":"Waterloo","lat":-33.897497,"lon":151.200318,"d":48.3049},{"name":"Sydenham","lat":-33.913707,"lon":151.167192,"d":52.3947}]},{"id":"SCO","name":"South Coast Line","color":"#005AA3","shape":[[-34.672627,150.854664],[-34.670231,150.855449],[-34.66499,150.852983],[-34.66302,150.852845],[-34.655478,150.854726],[-34.653595,150.856009],[-34.65163,150.85833],[-34.649818,150.858832],[-34.648643,150.858213],[-34.646088,150.854874],[-34.640838,150.851078],[-34.639191,150.850632],[-34.63769,150.851066],[-34.63257,150.854646],[-34.629675,150.85495],[-34.627663,150.853964],[-34.621971,150.848806],[-34.618503,150.842786],[-34.614761,150.839895],[-34.611652,150.838891],[-34.607541,150.839565],[-34.588714,150.845552],[-34.585966,150.845204],[-34.584053,150.843594],[-34.581003,150.837436],[-34.576405,150.831849],[-34.565068,150.801825],[-34.563891,150.799785],[-34.562359,150.798267],[-34.538771,150.785846],[-34.534459,150.784286],[-34.513681,150.78158],[-34.510569,150.78184],[-34.507458,150.782956],[-34.493197,150.791604],[-34.488638,150.794935],[-34.484156,150.799228],[-34.472674,150.812367],[-34.470172,150.81739],[-34.465445,150.83422],[-34.462644,150.838501],[-34.453457,150.84735],[-34.450187,150.852041],[-34.444199,150.867224],[-34.442149,150.879507],[-34.439768,150.883472],[-34.437179,150.885603],[-34.435082,150.886443],[-34.401215,150.893808],[-34.379744,150.903367],[-34.345585,150.916702],[-34.343325,150.916408],[-34.34045,150.914088],[-34.338469,150.91347],[-34.328964,150.916776],[-34.327321,150.916773],[-34.323471,150.915563],[-34.321865,150.91588],[-34.309198,150.925966],[-34.298587,150.938886],[-34.29278,150.940803],[-34.284886,150.945909],[-34.283763,150.947233],[-34.282907,150.950244],[-34.281948,150.951118],[-34.277897,150.951168],[-34.275209,150.953701],[-34.271879,150.954676],[-34.270838,150.956318],[-34.270046,150.959408],[-34.265525,150.965386],[-34.261509,150.966814],[-34.256416,150.971412],[-34.24676,150.968402],[-34.245162,150.968726],[-34.244376,150.969863],[-34.241815,150.977951],[-34.236302,150.984535],[-34.234598,150.984663],[-34.233384,150.983349],[-34.232876,150.978151],[-34.233093,150.975757],[-34.23268,150.974566],[-34.231445,150.973568],[-34.229832,150.973831],[-34.228962,150.974846],[-34.228482,150.97821],[-34.227518,150.980329],[-34.226475,150.981058],[-34.224222,150.981441],[-34.223272,150.98252],[-34.223015,150.988491],[-34.222205,150.990403],[-34.219352,150.992234],[-34.21739,150.995404],[-34.214107,150.996548],[-34.211108,151.001867],[-34.211098,151.004649],[-34.210662,151.005837],[-34.20972,151.006505],[-34.207525,151.006747],[-34.205542,151.008956],[-34.204432,151.00892],[-34.199876,151.006625],[-34.198718,151.00681],[-34.195906,151.008457],[-34.192222,151.008672],[-34.19116,151.007581],[-34.190856,151.00563],[-34.190109,151.004258],[-34.187377,151.001436],[-34.186109,151.001046],[-34.184447,151.002204],[-34.18365,151.005156],[-34.182096,151.007424],[-34.179721,151.007915],[-34.177883,151.008917],[-34.176909,151.008806],[-34.173108,151.003629],[-34.172658,151.001814],[-34.173128,151.000444],[-34.174646,150.998851],[-34.176864,150.995231],[-34.177077,150.994032],[-34.176728,150.992917],[-34.175523,150.992029],[-34.174157,150.992319],[-34.171618,150.997168],[-34.168437,150.999289],[-34.167393,151.002032],[-34.166433,151.002774],[-34.165016,151.002745],[-34.162332,151.000456],[-34.161629,150.998851],[-34.162017,150.997029],[-34.165959,150.991322],[-34.165715,150.989149],[-34.16406,150.987945],[-34.162308,150.988666],[-34.159682,150.994124],[-34.157595,150.995262],[-34.156317,150.997045],[-34.155215,150.997413],[-34.154304,150.997043],[-34.152719,150.995054],[-34.151812,150.994732],[-34.143372,150.995791],[-34.139954,150.99442],[-34.137101,150.994812],[-34.122787,150.993173],[-34.105535,150.994205],[-34.101821,150.995159],[-34.097955,150.997658],[-34.085087,151.010822],[-34.082445,151.011633],[-34.073073,151.011959],[-34.069464,151.013529],[-34.066481,151.016013],[-34.063413,151.020674],[-34.052717,151.047729],[-34.050283,151.050583],[-34.047843,151.051534],[-34.042404,151.050957],[-34.039504,151.05169],[-34.02335,151.063264],[-34.021146,151.064349],[-34.018116,151.064827],[-34.012298,151.064505],[-34.01043,151.065487],[-34.007846,151.068301],[-34.00662,151.068785],[-34.005323,151.068572],[-34.001896,151.066552],[-33.999372,151.066651],[-33.997643,151.067686],[-33.992796,151.072819],[-33.988333,151.076523],[-33.984889,151.076959],[-33.981394,151.078916],[-33.975932,151.078443],[-33.970377,151.081347],[-33.968044,151.083818],[-33.966619,151.086606],[-33.965195,151.095984],[-33.965604,151.098982],[-33.968393,151.105012],[-33.968445,151.109912],[-33.969867,151.115759],[-33.967567,151.127802],[-33.966364,151.130321],[-33.964433,151.131931],[-33.95624,151.134745],[-33.943834,151.141307],[-33.939027,151.146043],[-33.932102,151.149583],[-33.925545,151.15603],[-33.922022,151.157059],[-33.920232,151.158214],[-33.909417,151.174267],[-33.90636,151.18268],[-33.904734,151.184206],[-33.899903,151.185646],[-33.89876,151.186738],[-33.897668,151.189607],[-33.897375,151.195517],[-33.896653,151.197378],[-33.895592,151.198271],[-33.891891,151.199537],[-33.886695,151.20566],[-33.882803,151.208309],[-33.881255,151.208008],[-33.878893,151.205911],[-33.87753,151.205714],[-33.869343,151.208214],[-33.868047,151.209458],[-33.86773,151.210548],[-33.868346,151.215037],[-33.869322,151.216603],[-33.872556,151.219031],[-33.873634,151.220639],[-33.876227,151.226084],[-33.877257,151.231807],[-33.878871,151.23478],[-33.880195,151.239334],[-33.883741,151.242738],[-33.887452,151.242929],[-33.889109,151.243665],[-33.890267,151.245198],[-33.891298,151.248231]],"shapeLen":125.7439,"stations":[{"name":"Kiama","lat":-34.672607,"lon":150.854638,"d":0.0015},{"name":"Bombo","lat":-34.658693,"lon":150.853829,"d":1.6096},{"name":"Minnamurra","lat":-34.626209,"lon":150.852695,"d":5.7458},{"name":"Shellharbour Junction","lat":-34.591455,"lon":150.844713,"d":10.1705},{"name":"Oak Flats","lat":-34.571983,"lon":150.82034,"d":13.5947},{"name":"Albion Park","lat":-34.562836,"lon":150.798735,"d":15.8359},{"name":"Dapto","lat":-34.492821,"lon":150.791776,"d":24.1114},{"name":"Unanderra","lat":-34.45461,"lon":150.846046,"d":30.848},{"name":"Coniston","lat":-34.437797,"lon":150.885287,"d":35.003},{"name":"Wollongong","lat":-34.427073,"lon":150.888139,"d":36.2257},{"name":"North Wollongong","lat":-34.41232,"lon":150.891326,"d":37.892},{"name":"Fairy Meadow","lat":-34.395316,"lon":150.896451,"d":39.847},{"name":"Towradgi","lat":-34.384325,"lon":150.901451,"d":41.1524},{"name":"Corrimal","lat":-34.375526,"lon":150.904987,"d":42.1832},{"name":"Bellambi","lat":-34.36275,"lon":150.910033,"d":43.6774},{"name":"Woonona","lat":-34.349547,"lon":150.915155,"d":45.2189},{"name":"Bulli","lat":-34.33435,"lon":150.914741,"d":47.0186},{"name":"Thirroul","lat":-34.317999,"lon":150.918868,"d":48.9617},{"name":"Austinmer","lat":-34.306487,"lon":150.929136,"d":50.5566},{"name":"Coledale","lat":-34.289515,"lon":150.943305,"d":52.9089},{"name":"Wombarra","lat":-34.275629,"lon":150.953368,"d":54.8496},{"name":"Scarborough","lat":-34.265413,"lon":150.965544,"d":56.5343},{"name":"Coalcliff","lat":-34.242182,"lon":150.977277,"d":59.8392},{"name":"Stanwell Park","lat":-34.226335,"lon":150.981065,"d":63.1316},{"name":"Otford","lat":-34.210699,"lon":151.005751,"d":66.3227},{"name":"Helensburgh","lat":-34.176954,"lon":150.994472,"d":72.6179},{"name":"Waterfall","lat":-34.134766,"lon":150.994488,"d":80.1572},{"name":"Heathcote","lat":-34.087955,"lon":151.008323,"d":85.8084},{"name":"Engadine","lat":-34.067834,"lon":151.014682,"d":88.1822},{"name":"Loftus","lat":-34.045142,"lon":151.051258,"d":92.6494},{"name":"Sutherland","lat":-34.031698,"lon":151.057273,"d":94.2936},{"name":"Jannali","lat":-34.015956,"lon":151.06466,"d":96.2187},{"name":"Como","lat":-34.004371,"lon":151.068132,"d":97.6413},{"name":"Oatley","lat":-33.980501,"lon":151.079052,"d":100.6793},{"name":"Mortdale","lat":-33.970938,"lon":151.081017,"d":101.7939},{"name":"Penshurst","lat":-33.966142,"lon":151.088963,"d":102.7339},{"name":"Hurstville","lat":-33.967515,"lon":151.102655,"d":104.0693},{"name":"Wolli Creek","lat":-33.928069,"lon":151.153852,"d":111.5661},{"name":"Sydenham","lat":-33.914486,"lon":151.166787,"d":113.5564},{"name":"Redfern","lat":-33.892164,"lon":151.198457,"d":117.7825},{"name":"Central","lat":-33.885307,"lon":151.206882,"d":118.8369},{"name":"Town Hall","lat":-33.87372,"lon":151.206896,"d":120.2349},{"name":"Martin Place","lat":-33.867804,"lon":151.211822,"d":121.145},{"name":"Kings Cross","lat":-33.874254,"lon":151.221828,"d":122.3725},{"name":"Edgecliff","lat":-33.879282,"lon":151.236497,"d":123.8558},{"name":"Bondi Junction","lat":-33.891083,"lon":151.248295,"d":125.7404}]},{"id":"T5","name":"T5 Cumberland Line","color":"#C4258F","shape":[[-33.599009,150.752769],[-33.601555,150.758358],[-33.607671,150.785369],[-33.610147,150.791839],[-33.613307,150.810143],[-33.614895,150.812479],[-33.619725,150.815969],[-33.62396,150.820562],[-33.625936,150.825265],[-33.626803,150.831255],[-33.628525,150.834179],[-33.650181,150.851088],[-33.652339,150.85181],[-33.660082,150.852294],[-33.662581,150.852991],[-33.667477,150.856424],[-33.678503,150.859989],[-33.703053,150.873274],[-33.711688,150.876013],[-33.721191,150.881343],[-33.732593,150.890589],[-33.738206,150.897874],[-33.740518,150.899799],[-33.748351,150.900489],[-33.755826,150.903687],[-33.765781,150.906434],[-33.767584,150.907458],[-33.772635,150.916928],[-33.773711,150.919738],[-33.774207,150.936249],[-33.774773,150.938494],[-33.776797,150.942955],[-33.779624,150.946901],[-33.783688,150.950092],[-33.787232,150.951609],[-33.796987,150.9531],[-33.799899,150.954969],[-33.801988,150.957351],[-33.803282,150.960267],[-33.804477,150.966326],[-33.807975,150.975332],[-33.808218,150.977839],[-33.8077,150.983746],[-33.808479,150.988327],[-33.810686,150.992873],[-33.81404,150.995718],[-33.815215,150.997367],[-33.816838,151.003744],[-33.817724,151.005527],[-33.819315,151.007113],[-33.82105,151.00779],[-33.828572,151.006822],[-33.829211,151.005762],[-33.829523,151.002652],[-33.830316,151.000598],[-33.837804,150.991316],[-33.839799,150.990532],[-33.843394,150.99127],[-33.845144,150.990835],[-33.85832,150.981565],[-33.860681,150.978465],[-33.873027,150.956209],[-33.890602,150.940738],[-33.895002,150.938833],[-33.919243,150.933696],[-33.921319,150.931826],[-33.923394,150.928827],[-33.930521,150.922672],[-33.94483,150.915496],[-33.949091,150.912303],[-33.950741,150.911744],[-33.954165,150.911657],[-33.956693,150.910239],[-33.975706,150.889264],[-33.97649,150.887295],[-33.976424,150.885324],[-33.973963,150.879046],[-33.967742,150.852726],[-33.96307,150.845521],[-33.960878,150.843884],[-33.95508,150.841246],[-33.953296,150.839273],[-33.952065,150.836472],[-33.951837,150.832032],[-33.954904,150.818765],[-33.954989,150.81099],[-33.954637,150.808355]],"shapeLen":67.7982,"stations":[{"name":"Richmond","lat":-33.598986,"lon":150.752787,"d":0.0003},{"name":"East Richmond","lat":-33.601751,"lon":150.759067,"d":0.6591},{"name":"Clarendon","lat":-33.608655,"lon":150.787952,"d":3.4454},{"name":"Windsor","lat":-33.613686,"lon":150.811017,"d":5.6621},{"name":"Mulgrave","lat":-33.626576,"lon":150.830146,"d":8.0586},{"name":"Vineyard","lat":-33.650389,"lon":150.851158,"d":11.3917},{"name":"Riverstone","lat":-33.679101,"lon":150.86033,"d":14.7378},{"name":"Schofields","lat":-33.704664,"lon":150.873938,"d":17.8469},{"name":"Quakers Hill","lat":-33.727692,"lon":150.886406,"d":20.6782},{"name":"Marayong","lat":-33.746218,"lon":150.900144,"d":23.2118},{"name":"Blacktown","lat":-33.768425,"lon":150.90742,"d":25.7379},{"name":"Seven Hills","lat":-33.774221,"lon":150.935976,"d":28.5183},{"name":"Toongabbie","lat":-33.787284,"lon":150.951263,"d":30.6641},{"name":"Pendle Hill","lat":-33.801436,"lon":150.956156,"d":32.3293},{"name":"Wentworthville","lat":-33.807017,"lon":150.972583,"d":33.9739},{"name":"Westmead","lat":-33.808319,"lon":150.987766,"d":35.4088},{"name":"Parramatta","lat":-33.817551,"lon":151.005133,"d":37.3736},{"name":"Harris Park","lat":-33.823512,"lon":151.007463,"d":38.1226},{"name":"Merrylands","lat":-33.836547,"lon":150.992599,"d":40.3207},{"name":"Guildford","lat":-33.854301,"lon":150.98444,"d":42.5177},{"name":"Yennora","lat":-33.864704,"lon":150.970926,"d":44.2532},{"name":"Fairfield","lat":-33.872508,"lon":150.95692,"d":45.8105},{"name":"Canley Vale","lat":-33.887298,"lon":150.943623,"d":47.8639},{"name":"Cabramatta","lat":-33.894911,"lon":150.938884,"d":48.8264},{"name":"Warwick Farm","lat":-33.913179,"lon":150.935165,"d":50.8868},{"name":"Liverpool","lat":-33.924883,"lon":150.927575,"d":52.4248},{"name":"Casula","lat":-33.950172,"lon":150.911892,"d":55.6051},{"name":"Glenfield","lat":-33.972521,"lon":150.892832,"d":58.7426},{"name":"Edmondson Park","lat":-33.969327,"lon":150.858964,"d":62.1719},{"name":"Leppington","lat":-33.954359,"lon":150.808425,"d":67.7968}]},{"id":"T3","name":"T3 Liverpool and Inner West Line","color":"#F37021","shape":[[-33.884127,151.207114],[-33.882424,151.208111],[-33.87707,151.209459],[-33.872051,151.211458],[-33.866537,151.212364],[-33.863792,151.214861],[-33.862423,151.214528],[-33.861618,151.213033],[-33.861137,151.207568],[-33.861659,151.20623],[-33.862585,151.205564],[-33.870069,151.206282],[-33.872759,151.207046],[-33.875548,151.206736],[-33.878525,151.208891],[-33.882809,151.207896],[-33.884941,151.206421],[-33.887975,151.202403],[-33.89194,151.198717],[-33.893145,151.196709],[-33.896937,151.185956],[-33.897964,151.179851],[-33.897504,151.175708],[-33.895745,151.172214],[-33.894311,151.167931],[-33.894789,151.161811],[-33.893825,151.157224],[-33.894279,151.152376],[-33.893924,151.149614],[-33.890187,151.138253],[-33.889598,151.131828],[-33.887603,151.125211],[-33.883601,151.115854],[-33.878676,151.109023],[-33.876156,151.099628],[-33.870674,151.092719],[-33.868036,151.088546],[-33.866323,151.084834],[-33.86503,151.080562],[-33.864689,151.077795],[-33.865175,151.071668],[-33.863902,151.062644],[-33.864658,151.055896],[-33.864466,151.04809],[-33.86281,151.041415],[-33.864407,151.038441],[-33.870949,151.033854],[-33.873163,151.030292],[-33.876111,151.026912],[-33.87782,151.025824],[-33.882934,151.024317],[-33.884954,151.022234],[-33.885869,151.020155],[-33.886064,151.017162],[-33.881103,150.982072],[-33.88083,150.97763],[-33.881654,150.971624],[-33.889547,150.94252],[-33.89105,150.940622],[-33.894055,150.939085],[-33.918842,150.933848],[-33.920999,150.932136],[-33.924761,150.927325]],"shapeLen":37.876,"stations":[{"name":"Central","lat":-33.884137,"lon":151.207127,"d":0},{"name":"Museum","lat":-33.876069,"lon":151.209863,"d":0.9361},{"name":"St James","lat":-33.870654,"lon":151.211735,"d":1.564},{"name":"Circular Quay","lat":-33.861351,"lon":151.210295,"d":2.9823},{"name":"Wynyard","lat":-33.86587,"lon":151.205916,"d":3.8584},{"name":"Town Hall","lat":-33.873638,"lon":151.206935,"d":4.732},{"name":"Central","lat":-33.884001,"lon":151.206893,"d":5.9776},{"name":"Redfern","lat":-33.892164,"lon":151.198457,"d":7.1822},{"name":"Macdonaldtown","lat":-33.896946,"lon":151.185824,"d":8.4674},{"name":"Newtown","lat":-33.897879,"lon":151.179851,"d":9.0283},{"name":"Stanmore","lat":-33.89455,"lon":151.164044,"d":10.5791},{"name":"Petersham","lat":-33.893899,"lon":151.155574,"d":11.3758},{"name":"Lewisham","lat":-33.893307,"lon":151.147507,"d":12.1379},{"name":"Summer Hill","lat":-33.890369,"lon":151.138959,"d":12.9918},{"name":"Ashfield","lat":-33.887713,"lon":151.125498,"d":14.2772},{"name":"Croydon","lat":-33.883231,"lon":151.115376,"d":15.3382},{"name":"Burwood","lat":-33.877352,"lon":151.104193,"d":16.5826},{"name":"Strathfield","lat":-33.871689,"lon":151.09379,"d":17.7574},{"name":"Homebush","lat":-33.867061,"lon":151.086342,"d":18.6216},{"name":"Flemington","lat":-33.86492,"lon":151.06993,"d":20.1925},{"name":"Lidcombe","lat":-33.863744,"lon":151.044946,"d":22.5256},{"name":"Berala","lat":-33.871824,"lon":151.032376,"d":24.204},{"name":"Regents Park","lat":-33.883096,"lon":151.024145,"d":25.7242},{"name":"Sefton","lat":-33.885211,"lon":151.011528,"d":27.0188},{"name":"Chester Hill","lat":-33.883579,"lon":150.999935,"d":28.1042},{"name":"Leightonfield","lat":-33.881474,"lon":150.9851,"d":29.4935},{"name":"Villawood","lat":-33.880838,"lon":150.976644,"d":30.2772},{"name":"Carramar","lat":-33.884455,"lon":150.960886,"d":31.7881},{"name":"Cabramatta","lat":-33.894911,"lon":150.938884,"d":34.2775},{"name":"Warwick Farm","lat":-33.913179,"lon":150.935165,"d":36.3375},{"name":"Liverpool","lat":-33.924824,"lon":150.927453,"d":37.8721}]},{"id":"CCN","name":"Central Coast and Newcastle Line","color":"#D11F2F","shape":[[-32.9239,151.759054],[-32.920688,151.751671],[-32.916729,151.746319],[-32.9166,151.743615],[-32.93479,151.718538],[-32.935573,151.716427],[-32.93652,151.710761],[-32.939862,151.703806],[-32.942451,151.695059],[-32.944709,151.690101],[-32.944265,151.686933],[-32.940461,151.6825],[-32.93941,151.679148],[-32.940082,151.673517],[-32.94311,151.669602],[-32.943327,151.665004],[-32.941639,151.66271],[-32.937446,151.66124],[-32.936206,151.658731],[-32.936345,151.656949],[-32.938051,151.652629],[-32.936757,151.636707],[-32.937455,151.632727],[-32.942006,151.625915],[-32.943575,151.618961],[-32.945276,151.615925],[-32.947026,151.614489],[-32.958861,151.607984],[-32.961001,151.605864],[-32.964285,151.601281],[-32.965509,151.60088],[-32.96697,151.601252],[-32.971566,151.604935],[-32.973646,151.605989],[-32.975728,151.605706],[-32.977118,151.604462],[-32.977911,151.602213],[-32.977497,151.59964],[-32.976502,151.598248],[-32.973517,151.596501],[-32.972655,151.59471],[-32.973968,151.587377],[-32.975393,151.585914],[-32.985091,151.581192],[-32.987886,151.580474],[-32.989189,151.579378],[-32.989815,151.577726],[-32.990001,151.573788],[-32.990754,151.572108],[-32.992659,151.570233],[-32.997326,151.567322],[-33.004213,151.555923],[-33.012282,151.545357],[-33.012951,151.543344],[-33.012829,151.539295],[-33.013425,151.537071],[-33.016259,151.533588],[-33.017557,151.528582],[-33.022166,151.524892],[-33.023493,151.520854],[-33.025105,151.518128],[-33.026214,151.517597],[-33.027747,151.517817],[-33.029932,151.520456],[-33.031314,151.521186],[-33.035657,151.519789],[-33.038769,151.521186],[-33.042826,151.52155],[-33.044469,151.520563],[-33.049002,151.515388],[-33.05049,151.515172],[-33.053765,151.516348],[-33.056147,151.515564],[-33.057351,151.514241],[-33.059901,151.509651],[-33.061447,151.508295],[-33.066456,151.507319],[-33.071229,151.504651],[-33.076141,151.504234],[-33.093434,151.497112],[-33.097485,151.497342],[-33.098611,151.498156],[-33.100636,151.500917],[-33.101809,151.501401],[-33.103084,151.501242],[-33.104181,151.500457],[-33.105207,151.498646],[-33.108528,151.489152],[-33.110308,151.485951],[-33.113999,151.482525],[-33.118006,151.481042],[-33.121212,151.481044],[-33.126283,151.482738],[-33.129205,151.482893],[-33.131951,151.481978],[-33.135689,151.479194],[-33.137653,151.478937],[-33.150083,151.486767],[-33.153472,151.487754],[-33.155907,151.487451],[-33.160025,151.485914],[-33.162535,151.485727],[-33.185475,151.48747],[-33.191275,151.490014],[-33.19379,151.490392],[-33.209145,151.487414],[-33.211278,151.486022],[-33.219257,151.477614],[-33.226045,151.474579],[-33.227782,151.473326],[-33.229276,151.471331],[-33.231679,151.465657],[-33.233065,151.463572],[-33.241477,151.457768],[-33.246615,151.449891],[-33.250151,151.445405],[-33.254454,151.441153],[-33.259022,151.437701],[-33.263937,151.434935],[-33.283591,151.42584],[-33.314822,151.418643],[-33.317344,151.417435],[-33.32903,151.40499],[-33.337686,151.390992],[-33.344902,151.384373],[-33.346783,151.381273],[-33.349394,151.374523],[-33.352652,151.371086],[-33.356016,151.369763],[-33.359837,151.370045],[-33.36236,151.371312],[-33.366859,151.375257],[-33.370289,151.376557],[-33.374033,151.37642],[-33.37779,151.374566],[-33.381633,151.3709],[-33.382905,151.368319],[-33.383145,151.365385],[-33.381978,151.357935],[-33.382702,151.355177],[-33.384288,151.35352],[-33.388183,151.351616],[-33.390504,151.349827],[-33.396062,151.343008],[-33.398402,151.342923],[-33.404369,151.348466],[-33.406655,151.349212],[-33.40863,151.348323],[-33.414104,151.342992],[-33.418464,151.342809],[-33.424779,151.341412],[-33.425827,151.340427],[-33.427763,151.336949],[-33.42998,151.335172],[-33.437898,151.331021],[-33.447804,151.327588],[-33.44923,151.325483],[-33.450268,151.32001],[-33.451261,151.318182],[-33.459929,151.312882],[-33.46197,151.313419],[-33.46394,151.31675],[-33.465199,151.317953],[-33.470556,151.319537],[-33.473245,151.322378],[-33.474762,151.323345],[-33.483229,151.324153],[-33.485466,151.323512],[-33.495281,151.311227],[-33.496926,151.307057],[-33.497573,151.302145],[-33.497227,151.297007],[-33.496599,151.294109],[-33.485141,151.27034],[-33.484691,151.264749],[-33.485817,151.262804],[-33.490103,151.25949],[-33.491457,151.257549],[-33.493251,151.256151],[-33.493867,151.25449],[-33.494126,151.249541],[-33.496613,151.246762],[-33.497536,151.24271],[-33.498618,151.24167],[-33.502859,151.240386],[-33.503881,151.239626],[-33.505609,151.236359],[-33.505988,151.233269],[-33.506763,151.231789],[-33.508845,151.230858],[-33.515466,151.232597],[-33.524239,151.230826],[-33.528683,151.228357],[-33.541754,151.229276],[-33.546436,151.227081],[-33.547672,151.225062],[-33.548346,151.217974],[-33.549327,151.215083],[-33.549294,151.212663],[-33.550687,151.208862],[-33.550204,151.205112],[-33.551805,151.202529],[-33.551905,151.199333],[-33.553197,151.196771],[-33.554751,151.196369],[-33.556677,151.197662],[-33.557764,151.197789],[-33.559533,151.196892],[-33.561869,151.196675],[-33.564214,151.194767],[-33.567409,151.194679],[-33.5696,151.193593],[-33.576167,151.191952],[-33.578832,151.187521],[-33.582613,151.182513],[-33.583067,151.177887],[-33.587185,151.174143],[-33.590969,151.171848],[-33.596108,151.171894],[-33.597186,151.171479],[-33.59815,151.169864],[-33.59823,151.16666],[-33.59952,151.165255],[-33.602972,151.165115],[-33.608798,151.160945],[-33.615876,151.159753],[-33.618858,151.158463],[-33.621365,151.156246],[-33.62664,151.149184],[-33.62839,151.14859],[-33.632307,151.14866],[-33.641036,151.143307],[-33.642366,151.141303],[-33.643239,151.137857],[-33.644486,151.136655],[-33.646,151.136482],[-33.648564,151.137471],[-33.651164,151.136692],[-33.653744,151.136885],[-33.655226,151.136193],[-33.656443,151.134982],[-33.662743,151.12467],[-33.667061,151.120957],[-33.670464,151.116095],[-33.672486,151.114269],[-33.686328,151.109827],[-33.689505,151.107316],[-33.694884,151.101375],[-33.697073,151.10007],[-33.708155,151.097141],[-33.711096,151.097642],[-33.715356,151.099822],[-33.7172,151.099775],[-33.719122,151.098925],[-33.720698,151.097315],[-33.721633,151.095388],[-33.722066,151.089474],[-33.723355,151.086356],[-33.740833,151.069819],[-33.742456,151.066525],[-33.743295,151.065687],[-33.74513,151.065389],[-33.748154,151.066874],[-33.751003,151.06605],[-33.752791,151.06682],[-33.753657,151.068441],[-33.755222,151.077745],[-33.756671,151.079871],[-33.758255,151.080927],[-33.764688,151.082972],[-33.768755,151.081683],[-33.770928,151.081656],[-33.777446,151.084309],[-33.788961,151.082504],[-33.792212,151.082592],[-33.79776,151.084748],[-33.801256,151.089916],[-33.803598,151.09121],[-33.805145,151.091136],[-33.808732,151.089848],[-33.815992,151.090107],[-33.837009,151.085844],[-33.844466,151.085347],[-33.854714,151.086847],[-33.869756,151.092243],[-33.875986,151.099743],[-33.87814,151.108264],[-33.884996,151.118993],[-33.888991,151.130215],[-33.88994,151.138013],[-33.893412,151.148347],[-33.893987,151.151404],[-33.893556,151.156913],[-33.894579,151.161835],[-33.894126,151.167975],[-33.897585,151.176881],[-33.897689,151.180966],[-33.897277,151.183908],[-33.892594,151.19718],[-33.890867,151.199569],[-33.883609,151.206341]],"shapeLen":164.8562,"stations":[{"name":"Newcastle Interchange","lat":-32.923935,"lon":151.759033,"d":0},{"name":"Hamilton","lat":-32.918551,"lon":151.748567,"d":1.1507},{"name":"Broadmeadow","lat":-32.922826,"lon":151.734922,"d":2.7614},{"name":"Adamstown","lat":-32.933599,"lon":151.7202,"d":4.5842},{"name":"Kotara","lat":-32.941563,"lon":151.697998,"d":6.8647},{"name":"Cardiff","lat":-32.941537,"lon":151.662689,"d":10.6614},{"name":"Cockle Creek","lat":-32.942635,"lon":151.623763,"d":14.9171},{"name":"Teralba","lat":-32.96237,"lon":151.603634,"d":17.9696},{"name":"Booragul","lat":-32.971601,"lon":151.604916,"d":19.2009},{"name":"Fassifern","lat":-32.985572,"lon":151.581015,"d":23.2096},{"name":"Awaba","lat":-33.013015,"lon":151.542061,"d":28.1879},{"name":"Dora Creek","lat":-33.083823,"lon":151.500941,"d":38.3166},{"name":"Morisset","lat":-33.108974,"lon":151.488032,"d":42.0814},{"name":"Wyee","lat":-33.180162,"lon":151.487047,"d":50.5512},{"name":"Warnervale","lat":-33.24736,"lon":151.448745,"d":59.5579},{"name":"Wyong","lat":-33.285407,"lon":151.425278,"d":64.3738},{"name":"Tuggerah","lat":-33.30774,"lon":151.420249,"d":66.9007},{"name":"Ourimbah","lat":-33.359667,"lon":151.370024,"d":74.7026},{"name":"Lisarow","lat":-33.382188,"lon":151.370089,"d":77.5568},{"name":"Niagara Park","lat":-33.383135,"lon":151.354447,"d":79.0656},{"name":"Narara","lat":-33.394641,"lon":151.344421,"d":80.674},{"name":"Gosford","lat":-33.423629,"lon":151.341494,"d":84.3327},{"name":"Point Clare","lat":-33.446224,"lon":151.328381,"d":87.211},{"name":"Tascott","lat":-33.450963,"lon":151.3186,"d":88.3242},{"name":"Koolewong","lat":-33.466237,"lon":151.318499,"d":90.3712},{"name":"Woy Woy","lat":-33.48529,"lon":151.323467,"d":92.6323},{"name":"Wondabyne","lat":-33.492135,"lon":151.257053,"d":100.0488},{"name":"Hawkesbury River","lat":-33.546981,"lon":151.226496,"d":107.8079},{"name":"Cowan","lat":-33.593449,"lon":151.171812,"d":116.3269},{"name":"Berowra","lat":-33.623463,"lon":151.153077,"d":120.429},{"name":"Asquith","lat":-33.688554,"lon":151.108106,"d":129.3467},{"name":"Hornsby","lat":-33.703179,"lon":151.098313,"d":131.2572},{"name":"Epping","lat":-33.772583,"lon":151.081854,"d":141.6013},{"name":"Strathfield","lat":-33.871279,"lon":151.09418,"d":153.1254},{"name":"Redfern","lat":-33.891973,"lon":151.198243,"d":163.6622},{"name":"Central","lat":-33.883224,"lon":151.205634,"d":164.8501}]},{"id":"SCO-X000","name":"South Coast Line","color":"#005AA3","shape":[[-34.672546,150.854541],[-34.678354,150.849604],[-34.682527,150.847938],[-34.685367,150.847899],[-34.698576,150.849864],[-34.707919,150.848518],[-34.710524,150.849413],[-34.711692,150.849161],[-34.715499,150.846161],[-34.72161,150.835228],[-34.72445,150.831651],[-34.743014,150.819046],[-34.746817,150.815181],[-34.777362,150.757401],[-34.777703,150.754939],[-34.777698,150.74239],[-34.776274,150.736295],[-34.774211,150.71332],[-34.779906,150.698568],[-34.782993,150.686049],[-34.785156,150.683373],[-34.804964,150.668022],[-34.806497,150.666292],[-34.807421,150.664172],[-34.807751,150.661824],[-34.806418,150.656021],[-34.806662,150.652779],[-34.81272,150.636186],[-34.81551,150.63124],[-34.81914,150.626593],[-34.8237,150.622439],[-34.828664,150.619368],[-34.833212,150.617584],[-34.845047,150.614532],[-34.853826,150.609892]],"shapeLen":34.1102,"stations":[{"name":"Kiama","lat":-34.672555,"lon":150.854559,"d":0},{"name":"Gerringong","lat":-34.744753,"lon":150.817579,"d":9.3165},{"name":"Berry","lat":-34.780323,"lon":150.696726,"d":21.6367},{"name":"Bomaderry","lat":-34.853817,"lon":150.609863,"d":34.1102}]},{"id":"HUN","name":"Hunter Line","color":"#833134","shape":[[-32.9239,151.759054],[-32.921669,151.753494],[-32.918959,151.749139],[-32.896711,151.725078],[-32.894699,151.721952],[-32.891394,151.714465],[-32.88656,151.709409],[-32.88355,151.707605],[-32.821147,151.680785],[-32.814901,151.676322],[-32.755918,151.607352],[-32.753094,151.602352],[-32.751334,151.594721],[-32.749727,151.591407],[-32.747608,151.589014],[-32.742797,151.585907],[-32.740427,151.58283],[-32.739204,151.57952],[-32.738897,151.576228],[-32.739255,151.573574],[-32.741282,151.566796],[-32.741509,151.563772],[-32.741198,151.560938],[-32.738286,151.552516],[-32.735767,151.546738],[-32.733624,151.53889],[-32.729476,151.529134],[-32.725688,151.515278],[-32.723939,151.497922],[-32.72252,151.49337],[-32.718943,151.485056],[-32.718062,151.481261],[-32.717997,151.472735],[-32.720005,151.45275],[-32.723985,151.437484],[-32.723494,151.422277],[-32.722787,151.418663],[-32.721353,151.415725],[-32.719347,151.413439],[-32.714322,151.409601],[-32.709303,151.406865],[-32.705965,151.404125],[-32.697323,151.393403],[-32.690399,151.386433],[-32.687419,151.384434],[-32.683288,151.382797],[-32.679467,151.380548],[-32.676289,151.377451],[-32.669054,151.36652],[-32.667958,151.364154],[-32.659741,151.336965],[-32.659136,151.329652],[-32.659679,151.321907],[-32.661004,151.317938],[-32.664726,151.311859],[-32.665667,151.307109],[-32.664086,151.296729],[-32.658941,151.288124],[-32.655819,151.27597],[-32.655804,151.271312],[-32.657076,151.266256],[-32.658914,151.262754],[-32.663135,151.257227],[-32.664394,151.252682],[-32.663989,151.248365],[-32.661721,151.241779],[-32.660061,151.238845],[-32.658028,151.236442],[-32.648704,151.230278],[-32.643338,151.227513],[-32.639645,151.226968],[-32.631263,151.227851],[-32.627997,151.227102],[-32.624089,151.224844],[-32.621712,151.222398],[-32.610136,151.205878],[-32.58467,151.181585],[-32.569321,151.16197],[-32.566262,151.159317],[-32.562375,151.158014],[-32.558682,151.157695],[-32.554562,151.154888],[-32.553061,151.154426],[-32.548136,151.155495],[-32.53952,151.155562],[-32.53186,151.153883],[-32.526266,151.154401],[-32.520817,151.153372],[-32.515862,151.154003],[-32.509425,151.152572],[-32.507638,151.15148],[-32.506383,151.149902],[-32.503598,151.145523],[-32.501935,151.140366],[-32.499558,151.137775],[-32.497411,151.136957],[-32.493194,151.137313],[-32.484951,151.135618],[-32.483115,151.134735],[-32.47989,151.131944],[-32.475541,151.131369],[-32.473893,151.130614],[-32.472432,151.129099],[-32.466666,151.119739],[-32.465143,151.114836],[-32.459871,151.10368],[-32.458396,151.099382],[-32.457623,151.094909],[-32.457505,151.09089],[-32.459265,151.079728],[-32.459395,151.075755],[-32.45799,151.070172],[-32.455319,151.066019],[-32.452189,151.063434],[-32.443171,151.05799],[-32.440082,151.056985],[-32.429892,151.055089],[-32.425088,151.052985],[-32.420912,151.049299],[-32.41544,151.042083],[-32.411589,151.039104],[-32.376336,151.024991],[-32.37165,151.022496],[-32.357763,151.010768],[-32.354616,151.007121],[-32.35209,151.0021],[-32.348635,150.990813],[-32.347521,150.988899],[-32.345979,150.987378],[-32.343941,150.986385],[-32.340261,150.985627],[-32.336159,150.983608],[-32.332964,150.983578],[-32.329878,150.984912],[-32.327832,150.984615],[-32.326261,150.983077],[-32.324557,150.979041],[-32.322055,150.977466],[-32.318631,150.978192],[-32.313176,150.983479],[-32.308665,150.985288],[-32.305644,150.985155],[-32.303134,150.984234],[-32.29695,150.979243],[-32.293334,150.975165],[-32.290836,150.97126],[-32.281938,150.951919],[-32.281294,150.945862],[-32.282487,150.924201],[-32.281568,150.921166],[-32.278684,150.916715],[-32.277749,150.914391],[-32.277441,150.911832],[-32.277841,150.907574],[-32.27742,150.905019],[-32.275312,150.901425],[-32.271095,150.898048],[-32.267042,150.889378],[-32.265614,150.88784],[-32.263946,150.88739],[-32.260021,150.888104],[-32.254287,150.890408],[-32.251525,150.892428],[-32.24252,150.902621],[-32.24054,150.903693],[-32.238797,150.903864],[-32.216288,150.900151],[-32.21397,150.898922],[-32.208592,150.894748],[-32.205827,150.893789],[-32.174276,150.893518],[-32.170223,150.892956],[-32.153536,150.888121],[-32.135502,150.876587],[-32.132151,150.874946],[-32.11743,150.870353],[-32.090292,150.867012],[-32.067038,150.870974],[-32.062177,150.869891],[-32.055202,150.865715],[-32.046687,150.866948]],"shapeLen":151.6047,"stations":[{"name":"Newcastle Interchange","lat":-32.923935,"lon":151.759033,"d":0},{"name":"Hamilton","lat":-32.918551,"lon":151.748567,"d":1.1507},{"name":"Waratah","lat":-32.902342,"lon":151.731127,"d":3.5794},{"name":"Warabrook","lat":-32.887266,"lon":151.710093,"d":6.1945},{"name":"Sandgate","lat":-32.872236,"lon":151.702806,"d":8.0057},{"name":"Hexham","lat":-32.828948,"lon":151.684215,"d":13.1228},{"name":"Tarro","lat":-32.80913,"lon":151.669796,"d":15.7428},{"name":"Beresfield","lat":-32.799184,"lon":151.658225,"d":17.2896},{"name":"Thornton","lat":-32.783643,"lon":151.63986,"d":19.7254},{"name":"Metford","lat":-32.765099,"lon":151.618094,"d":22.6225},{"name":"Victoria Street","lat":-32.750935,"lon":151.593705,"d":25.4623},{"name":"East Maitland","lat":-32.744752,"lon":151.587407,"d":26.3914},{"name":"High Street","lat":-32.74143,"lon":151.563956,"d":28.8778},{"name":"Maitland","lat":-32.738117,"lon":151.552019,"d":30.0646},{"name":"Lochinvar","lat":-32.720545,"lon":151.450229,"d":40.0353},{"name":"Greta","lat":-32.686746,"lon":151.384209,"d":48.2706},{"name":"Branxton","lat":-32.662238,"lon":151.345463,"d":53.0243},{"name":"Singleton","lat":-32.571987,"lon":151.165559,"d":76.2878},{"name":"Muswellbrook","lat":-32.267548,"lon":150.890538,"d":125.6629},{"name":"Aberdeen","lat":-32.166808,"lon":150.891966,"d":137.6881},{"name":"Scone","lat":-32.046689,"lon":150.866972,"d":151.6047}]},{"id":"T2","name":"T2 Leppington and Inner West Line","color":"#0098CD","shape":[[-33.884195,151.207238],[-33.872051,151.211458],[-33.866537,151.212364],[-33.863792,151.214861],[-33.862423,151.214528],[-33.861618,151.213033],[-33.861162,151.207388],[-33.861812,151.206047],[-33.862764,151.205514],[-33.870069,151.206282],[-33.872759,151.207046],[-33.875548,151.206736],[-33.878525,151.208891],[-33.883268,151.207678],[-33.884941,151.206421],[-33.887975,151.202403],[-33.89194,151.198717],[-33.89407,151.194537],[-33.897466,151.183939],[-33.897944,151.179067],[-33.897504,151.175708],[-33.895745,151.172214],[-33.894311,151.167931],[-33.894796,151.162204],[-33.893804,151.15691],[-33.894198,151.15137],[-33.893454,151.147767],[-33.890112,151.137959],[-33.889382,151.130875],[-33.885156,151.118895],[-33.883416,151.115532],[-33.878302,151.108172],[-33.876156,151.099628],[-33.870674,151.092719],[-33.868036,151.088546],[-33.865181,151.081084],[-33.864689,151.077795],[-33.865175,151.071668],[-33.863902,151.062644],[-33.864658,151.055896],[-33.864466,151.04809],[-33.863445,151.044106],[-33.861428,151.041613],[-33.850231,151.033605],[-33.83917,151.021827],[-33.830153,151.00762],[-33.829489,151.005683],[-33.829505,151.003112],[-33.830592,151.000277],[-33.837804,150.991316],[-33.839799,150.990532],[-33.843394,150.99127],[-33.845144,150.990835],[-33.858708,150.981172],[-33.860681,150.978465],[-33.873027,150.956209],[-33.890602,150.940738],[-33.895002,150.938833],[-33.919243,150.933696],[-33.921319,150.931826],[-33.923394,150.928827],[-33.930521,150.922672],[-33.94483,150.915496],[-33.949091,150.912303],[-33.950741,150.911744],[-33.954165,150.911657],[-33.956693,150.910239],[-33.975819,150.889096],[-33.97649,150.887295],[-33.976424,150.885324],[-33.973963,150.879046],[-33.967742,150.852726],[-33.96307,150.845521],[-33.960878,150.843884],[-33.95508,150.841246],[-33.953296,150.839273],[-33.952065,150.836472],[-33.951837,150.832032],[-33.954904,150.818765],[-33.954989,150.81099],[-33.954637,150.808355]],"shapeLen":56.8336,"stations":[{"name":"Central","lat":-33.884264,"lon":151.20736,"d":0},{"name":"Museum","lat":-33.876112,"lon":151.209951,"d":0.933},{"name":"St James","lat":-33.870683,"lon":151.211931,"d":1.562},{"name":"Circular Quay","lat":-33.86126,"lon":151.210312,"d":2.9805},{"name":"Wynyard","lat":-33.86587,"lon":151.205916,"d":3.8577},{"name":"Town Hall","lat":-33.873616,"lon":151.206772,"d":4.7303},{"name":"Central","lat":-33.883758,"lon":151.206611,"d":5.9682},{"name":"Redfern","lat":-33.892381,"lon":151.198695,"d":7.1748},{"name":"Macdonaldtown","lat":-33.89691,"lon":151.185811,"d":8.4652},{"name":"Newtown","lat":-33.897879,"lon":151.179851,"d":9.0287},{"name":"Stanmore","lat":-33.89455,"lon":151.164044,"d":10.5783},{"name":"Petersham","lat":-33.893899,"lon":151.155574,"d":11.3748},{"name":"Lewisham","lat":-33.893307,"lon":151.147507,"d":12.1353},{"name":"Summer Hill","lat":-33.890369,"lon":151.138959,"d":12.9893},{"name":"Ashfield","lat":-33.887713,"lon":151.125498,"d":14.2737},{"name":"Croydon","lat":-33.883296,"lon":151.115325,"d":15.3349},{"name":"Burwood","lat":-33.877352,"lon":151.104193,"d":16.5798},{"name":"Strathfield","lat":-33.871689,"lon":151.09379,"d":17.7546},{"name":"Homebush","lat":-33.867061,"lon":151.086342,"d":18.6184},{"name":"Flemington","lat":-33.86492,"lon":151.06993,"d":20.1866},{"name":"Lidcombe","lat":-33.863606,"lon":151.045036,"d":22.5162},{"name":"Auburn","lat":-33.849272,"lon":151.032901,"d":24.4959},{"name":"Clyde","lat":-33.836059,"lon":151.017023,"d":26.5775},{"name":"Granville","lat":-33.832975,"lon":151.012116,"d":27.1458},{"name":"Merrylands","lat":-33.836547,"lon":150.992599,"d":29.3559},{"name":"Guildford","lat":-33.854301,"lon":150.98444,"d":31.5529},{"name":"Yennora","lat":-33.864704,"lon":150.970926,"d":33.2882},{"name":"Fairfield","lat":-33.872508,"lon":150.95692,"d":34.8455},{"name":"Canley Vale","lat":-33.887298,"lon":150.943623,"d":36.8989},{"name":"Cabramatta","lat":-33.894911,"lon":150.938884,"d":37.8614},{"name":"Warwick Farm","lat":-33.913179,"lon":150.935165,"d":39.9217},{"name":"Liverpool","lat":-33.924883,"lon":150.927575,"d":41.4597},{"name":"Casula","lat":-33.950172,"lon":150.911892,"d":44.64},{"name":"Glenfield","lat":-33.972521,"lon":150.892832,"d":47.7776},{"name":"Edmondson Park","lat":-33.969327,"lon":150.858964,"d":51.2072},{"name":"Leppington","lat":-33.954359,"lon":150.808425,"d":56.8321}]},{"id":"T1","name":"T1 North Shore and Western Line","color":"#F99D1C","shape":[[-33.623511,151.153121],[-33.625728,151.149959],[-33.626975,151.148989],[-33.632307,151.14866],[-33.640807,151.143494],[-33.642206,151.141688],[-33.643239,151.137857],[-33.644486,151.136655],[-33.646,151.136482],[-33.648871,151.137454],[-33.650846,151.136729],[-33.653744,151.136885],[-33.655619,151.135896],[-33.662743,151.12467],[-33.667061,151.120957],[-33.670464,151.116095],[-33.67215,151.11449],[-33.68532,151.110361],[-33.688834,151.107961],[-33.695663,151.100782],[-33.704692,151.098309],[-33.705642,151.098878],[-33.709593,151.103818],[-33.715255,151.114141],[-33.717904,151.117491],[-33.727589,151.124218],[-33.741741,151.137095],[-33.743573,151.139459],[-33.745828,151.144644],[-33.750853,151.147892],[-33.753577,151.152656],[-33.774848,151.168901],[-33.779199,151.170388],[-33.780654,151.171356],[-33.784489,151.177857],[-33.786867,151.17996],[-33.789713,151.180926],[-33.800842,151.181071],[-33.805018,151.18175],[-33.808456,151.184658],[-33.812097,151.191394],[-33.814885,151.193212],[-33.823552,151.194389],[-33.82781,151.195761],[-33.82926,151.194892],[-33.8306,151.192121],[-33.832346,151.191917],[-33.833324,151.193246],[-33.83336,151.195582],[-33.833901,151.196682],[-33.834887,151.197245],[-33.83746,151.197348],[-33.839244,151.198899],[-33.84178,151.209288],[-33.844045,151.21113],[-33.84729,151.212417],[-33.849507,151.212224],[-33.859418,151.206043],[-33.86205,151.205284],[-33.87007,151.206182],[-33.872586,151.206901],[-33.875676,151.206705],[-33.878525,151.20884],[-33.88218,151.208095],[-33.88404,151.206967]],"shapeLen":35.9855,"stations":[{"name":"Berowra","lat":-33.623524,"lon":151.153133,"d":0.0001},{"name":"Mount Kuring-gai","lat":-33.653473,"lon":151.136786,"d":4.0024},{"name":"Mount Colah","lat":-33.671642,"lon":151.114843,"d":6.9201},{"name":"Asquith","lat":-33.688554,"lon":151.108106,"d":8.9139},{"name":"Hornsby","lat":-33.70321,"lon":151.098476,"d":10.822},{"name":"Waitara","lat":-33.710341,"lon":151.104864,"d":11.8646},{"name":"Wahroonga","lat":-33.717934,"lon":151.117378,"d":13.304},{"name":"Warrawee","lat":-33.72432,"lon":151.121738,"d":14.1235},{"name":"Turramurra","lat":-33.732506,"lon":151.1286,"d":15.2335},{"name":"Pymble","lat":-33.74472,"lon":151.142161,"d":17.1057},{"name":"Gordon","lat":-33.755663,"lon":151.154328,"d":18.8137},{"name":"Killara","lat":-33.765613,"lon":151.161735,"d":20.1147},{"name":"Lindfield","lat":-33.775377,"lon":151.169274,"d":21.4028},{"name":"Roseville","lat":-33.784443,"lon":151.177721,"d":22.7481},{"name":"Chatswood","lat":-33.797466,"lon":151.181074,"d":24.2805},{"name":"Artarmon","lat":-33.808604,"lon":151.184736,"d":25.6067},{"name":"St Leonards","lat":-33.822042,"lon":151.194157,"d":27.4873},{"name":"Wollstonecraft","lat":-33.831934,"lon":151.191791,"d":28.7736},{"name":"Waverton","lat":-33.837816,"lon":151.197402,"d":29.7585},{"name":"North Sydney","lat":-33.841099,"lon":151.207054,"d":30.749},{"name":"Milsons Point","lat":-33.845757,"lon":151.211817,"d":31.4729},{"name":"Wynyard","lat":-33.865885,"lon":151.205744,"d":33.8699},{"name":"Town Hall","lat":-33.873552,"lon":151.206801,"d":34.7323},{"name":"Central","lat":-33.883966,"lon":151.206838,"d":35.9835}]},{"id":"T4","name":"T4 Eastern Suburbs and Illawarra Line","color":"#005AA3","shape":[[-33.891063,151.248299],[-33.890568,151.24525],[-33.889425,151.243584],[-33.887742,151.242789],[-33.883773,151.242623],[-33.880342,151.239349],[-33.878995,151.234875],[-33.877238,151.231625],[-33.876407,151.226263],[-33.874283,151.221605],[-33.872814,151.219228],[-33.869929,151.217044],[-33.868632,151.215163],[-33.86799,151.212284],[-33.868147,151.209681],[-33.869477,151.20831],[-33.877264,151.205915],[-33.878814,151.206058],[-33.881111,151.208064],[-33.88237,151.208455],[-33.883879,151.208018],[-33.886834,151.205748],[-33.891731,151.199825],[-33.895596,151.198339],[-33.896863,151.197179],[-33.89745,151.195354],[-33.897666,151.189863],[-33.898772,151.18679],[-33.899908,151.185682],[-33.904752,151.184246],[-33.906186,151.182975],[-33.907447,151.180748],[-33.909444,151.174287],[-33.920249,151.158245],[-33.922029,151.157098],[-33.925694,151.155968],[-33.932122,151.149618],[-33.939355,151.145865],[-33.943849,151.141348],[-33.956252,151.134788],[-33.96445,151.131968],[-33.966389,151.130353],[-33.967369,151.128561],[-33.968402,151.124525],[-33.969935,151.115585],[-33.968478,151.109909],[-33.968317,151.104536],[-33.965636,151.098971],[-33.965234,151.095985],[-33.966583,151.086838],[-33.9678,151.084251],[-33.969564,151.082139],[-33.975932,151.078443],[-33.981254,151.07906],[-33.984896,151.077002],[-33.988343,151.076565],[-33.999054,151.066815],[-34.001889,151.066591],[-34.004856,151.068436],[-34.006623,151.068825],[-34.007866,151.068332],[-34.010455,151.065519],[-34.012304,151.064549],[-34.018288,151.064873],[-34.021153,151.06439],[-34.023371,151.063295],[-34.039495,151.051809],[-34.042678,151.051055],[-34.047874,151.051575],[-34.05033,151.050624],[-34.052777,151.04775],[-34.063188,151.021284],[-34.066505,151.016045],[-34.06948,151.013566],[-34.073081,151.012001],[-34.082446,151.011676],[-34.085295,151.010749],[-34.097541,150.9981],[-34.101833,150.995198],[-34.10554,150.994243],[-34.124012,150.993299],[-34.137096,150.994854],[-34.140314,150.994507],[-34.143296,150.995823],[-34.151818,150.994784],[-34.155216,150.997461],[-34.156375,150.99709],[-34.157655,150.995287],[-34.159711,150.994173],[-34.162333,150.988704],[-34.164058,150.988],[-34.16569,150.989216],[-34.165918,150.991307],[-34.161992,150.996982],[-34.161593,150.998877],[-34.1623,151.000488],[-34.164385,151.002425],[-34.165614,151.002957],[-34.167429,151.002062],[-34.168704,150.999003],[-34.171661,150.997212],[-34.174286,150.992222],[-34.176244,150.992371],[-34.176933,150.993347],[-34.177066,150.994491]],"shapeLen":53.09,"stations":[{"name":"Bondi Junction","lat":-33.891083,"lon":151.248295,"d":0},{"name":"Edgecliff","lat":-33.879354,"lon":151.23649,"d":1.9012},{"name":"Kings Cross","lat":-33.874327,"lon":151.221788,"d":3.3899},{"name":"Martin Place","lat":-33.867804,"lon":151.211822,"d":4.6016},{"name":"Town Hall","lat":-33.873591,"lon":151.206997,"d":5.4694},{"name":"Central","lat":-33.885155,"lon":151.206874,"d":6.8717},{"name":"Redfern","lat":-33.892279,"lon":151.199284,"d":7.9299},{"name":"Sydenham","lat":-33.914565,"lon":151.166867,"d":12.1725},{"name":"Tempe","lat":-33.924144,"lon":151.156709,"d":13.6497},{"name":"Wolli Creek","lat":-33.928026,"lon":151.153796,"d":14.1613},{"name":"Arncliffe","lat":-33.936602,"lon":151.147446,"d":15.2947},{"name":"Banksia","lat":-33.945105,"lon":151.140584,"d":16.4403},{"name":"Rockdale","lat":-33.9521,"lon":151.13675,"d":17.2947},{"name":"Kogarah","lat":-33.962731,"lon":151.132486,"d":18.5412},{"name":"Carlton","lat":-33.9684,"lon":151.124379,"d":19.6008},{"name":"Allawah","lat":-33.969678,"lon":151.114211,"d":20.559},{"name":"Hurstville","lat":-33.967311,"lon":151.102818,"d":21.6665},{"name":"Penshurst","lat":-33.966142,"lon":151.088963,"d":23.001},{"name":"Mortdale","lat":-33.970971,"lon":151.081116,"d":23.9351},{"name":"Oatley","lat":-33.980503,"lon":151.078987,"d":25.0498},{"name":"Como","lat":-34.004371,"lon":151.068132,"d":28.0846},{"name":"Jannali","lat":-34.015956,"lon":151.06466,"d":29.5085},{"name":"Sutherland","lat":-34.031638,"lon":151.057195,"d":31.4339},{"name":"Loftus","lat":-34.04513,"lon":151.051344,"d":33.0732},{"name":"Engadine","lat":-34.067876,"lon":151.014771,"d":37.544},{"name":"Heathcote","lat":-34.087903,"lon":151.008256,"d":39.9189},{"name":"Waterfall","lat":-34.134755,"lon":150.994552,"d":45.5655},{"name":"Helensburgh","lat":-34.177025,"lon":150.994486,"d":53.089}]},{"id":"T9","name":"T9 Northern Line","color":"#D11F2F","shape":[[-33.88404,151.206967],[-33.885576,151.205666],[-33.888131,151.202234],[-33.891557,151.199158],[-33.893145,151.196709],[-33.897466,151.183939],[-33.897954,151.180119],[-33.897767,151.176861],[-33.894399,151.168391],[-33.894224,151.166467],[-33.894789,151.161811],[-33.893804,151.15691],[-33.894266,151.152818],[-33.894018,151.150202],[-33.890187,151.138253],[-33.889598,151.131828],[-33.887603,151.125211],[-33.883601,151.115854],[-33.878676,151.109023],[-33.876156,151.099628],[-33.869447,151.09163],[-33.853538,151.086505],[-33.843877,151.085301],[-33.83578,151.086013],[-33.815651,151.090111],[-33.808724,151.089739],[-33.80396,151.091144],[-33.801313,151.089836],[-33.799286,151.086263],[-33.797688,151.084573],[-33.791998,151.082411],[-33.789305,151.082294],[-33.777901,151.08422],[-33.775579,151.08375],[-33.773308,151.082279],[-33.770651,151.081548],[-33.768745,151.081643],[-33.765699,151.082836],[-33.764003,151.082823],[-33.757915,151.08072],[-33.755936,151.078933],[-33.754805,151.076259],[-33.75369,151.068434],[-33.752594,151.066576],[-33.751001,151.065971],[-33.747697,151.066743],[-33.744585,151.065266],[-33.742813,151.06602],[-33.740809,151.069788],[-33.723329,151.086325],[-33.722032,151.089466],[-33.7216,151.095373],[-33.719432,151.09864],[-33.717572,151.099636],[-33.715536,151.099806],[-33.711108,151.097604],[-33.708594,151.097086],[-33.703183,151.098345]],"shapeLen":33.6716,"stations":[{"name":"Central","lat":-33.883808,"lon":151.206733,"d":0},{"name":"Redfern","lat":-33.892164,"lon":151.198457,"d":1.2019},{"name":"Macdonaldtown","lat":-33.89691,"lon":151.185811,"d":2.4857},{"name":"Newtown","lat":-33.897942,"lon":151.179854,"d":3.0502},{"name":"Stanmore","lat":-33.89455,"lon":151.164044,"d":4.5992},{"name":"Petersham","lat":-33.893899,"lon":151.155574,"d":5.396},{"name":"Lewisham","lat":-33.893307,"lon":151.147507,"d":6.1572},{"name":"Summer Hill","lat":-33.890369,"lon":151.138959,"d":7.0109},{"name":"Ashfield","lat":-33.887713,"lon":151.125498,"d":8.2963},{"name":"Burwood","lat":-33.877352,"lon":151.104193,"d":10.6018},{"name":"Strathfield","lat":-33.871567,"lon":151.093913,"d":11.7775},{"name":"North Strathfield","lat":-33.85908,"lon":151.088197,"d":13.2889},{"name":"Concord West","lat":-33.848729,"lon":151.085694,"d":14.4642},{"name":"Rhodes","lat":-33.830788,"lon":151.087096,"d":16.4713},{"name":"Meadowbank","lat":-33.815885,"lon":151.090056,"d":18.1508},{"name":"West Ryde","lat":-33.807182,"lon":151.0903,"d":19.1271},{"name":"Denistone","lat":-33.799714,"lon":151.087008,"d":20.128},{"name":"Eastwood","lat":-33.790144,"lon":151.082398,"d":21.3177},{"name":"Epping","lat":-33.773058,"lon":151.08219,"d":23.2693},{"name":"Cheltenham","lat":-33.755634,"lon":151.07859,"d":25.3234},{"name":"Beecroft","lat":-33.749381,"lon":151.06659,"d":26.8753},{"name":"Pennant Hills","lat":-33.737854,"lon":151.072667,"d":28.4793},{"name":"Thornleigh","lat":-33.731833,"lon":151.078184,"d":29.3209},{"name":"Normanhurst","lat":-33.720791,"lon":151.097049,"d":31.5796},{"name":"Hornsby","lat":-33.703233,"lon":151.098575,"d":33.6701}]},{"id":"L1","name":"L1 Dulwich Hill Line","color":"#BE1622","shape":[[-33.910321,151.140083],[-33.909169,151.139642],[-33.906924,151.140152],[-33.903864,151.138396],[-33.901024,151.13821],[-33.899322,151.139362],[-33.897478,151.141868],[-33.894836,151.142662],[-33.89191,151.144779],[-33.882124,151.145445],[-33.877977,151.14797],[-33.875522,151.151087],[-33.874977,151.153947],[-33.874969,151.159046],[-33.874322,151.162034],[-33.873905,151.168176],[-33.872066,151.171345],[-33.871833,151.172583],[-33.87295,151.174896],[-33.87472,151.176034],[-33.875323,151.177018],[-33.875369,151.179804],[-33.877155,151.186911],[-33.877111,151.188132],[-33.875227,151.192938],[-33.87423,151.194134],[-33.872435,151.194145],[-33.870278,151.191475],[-33.869165,151.191042],[-33.867466,151.19195],[-33.866868,151.194054],[-33.869868,151.197985],[-33.874565,151.198315],[-33.878942,151.200704],[-33.880334,151.208217],[-33.88216,151.207768],[-33.882618,151.207367],[-33.882379,151.206726]],"shapeLen":12.3305,"stations":[{"name":"Dulwich Hill","lat":-33.910306,"lon":151.140097,"d":0.0011},{"name":"Dulwich Grove","lat":-33.905044,"lon":151.139021,"d":0.622},{"name":"Arlington","lat":-33.901842,"lon":151.138055,"d":0.9914},{"name":"Waratah Mills","lat":-33.898773,"lon":151.140111,"d":1.3908},{"name":"Lewisham West","lat":-33.893982,"lon":151.143228,"d":2.0188},{"name":"Taverners Hill","lat":-33.889303,"lon":151.145206,"d":2.5817},{"name":"Marion","lat":-33.883835,"lon":151.145168,"d":3.1885},{"name":"Hawthorne","lat":-33.879723,"lon":151.147129,"d":3.6883},{"name":"Leichhardt North","lat":-33.874954,"lon":151.153876,"d":4.5583},{"name":"Lilyfield","lat":-33.874179,"lon":151.165094,"d":5.6028},{"name":"Rozelle Bay","lat":-33.87183,"lon":151.172713,"d":6.3732},{"name":"Jubilee Park","lat":-33.875383,"lon":151.17872,"d":7.1033},{"name":"Glebe","lat":-33.877259,"lon":151.187421,"d":7.9353},{"name":"Wentworth Park","lat":-33.874359,"lon":151.194008,"d":8.6304},{"name":"Bank Street","lat":-33.870953,"lon":151.192405,"d":9.0784},{"name":"John Street Square","lat":-33.867389,"lon":151.192025,"d":9.5383},{"name":"The Star","lat":-33.867353,"lon":151.195199,"d":9.8487},{"name":"Pyrmont Bay","lat":-33.869367,"lon":151.197447,"d":10.1531},{"name":"Convention","lat":-33.872574,"lon":151.198004,"d":10.5278},{"name":"Exhibition Centre","lat":-33.877214,"lon":151.199571,"d":11.0666},{"name":"Paddy's Markets","lat":-33.879317,"lon":151.202623,"d":11.4668},{"name":"Capitol Square","lat":-33.879812,"lon":151.205553,"d":11.7428},{"name":"Central Grand Concourse","lat":-33.882422,"lon":151.206686,"d":12.3305}]},{"id":"T8","name":"T8 Airport and South Line","color":"#00954C","shape":[[-33.884021,151.206943],[-33.882391,151.207984],[-33.878518,151.208785],[-33.875695,151.206651],[-33.872272,151.206841],[-33.862618,151.205499],[-33.8616,151.206244],[-33.861093,151.207656],[-33.861599,151.213295],[-33.862371,151.214681],[-33.863896,151.215039],[-33.866624,151.212557],[-33.872693,151.211696],[-33.877038,151.209528],[-33.883892,151.207656],[-33.887502,151.203793],[-33.888991,151.202902],[-33.89561,151.201736],[-33.903173,151.203675],[-33.904729,151.203497],[-33.906693,151.201834],[-33.908737,151.197077],[-33.918102,151.188556],[-33.922419,151.187383],[-33.927506,151.187466],[-33.931185,151.186473],[-33.932841,151.185181],[-33.933584,151.183615],[-33.933502,151.176057],[-33.935628,151.170957],[-33.935833,151.168795],[-33.93427,151.163825],[-33.931599,151.160325],[-33.928775,151.155349],[-33.928217,151.145764],[-33.931934,151.133346],[-33.931897,151.131318],[-33.931103,151.128142],[-33.931352,151.125813],[-33.933926,151.119827],[-33.937224,151.11533],[-33.938988,151.104579],[-33.942534,151.096363],[-33.945924,151.091094],[-33.949851,151.078709],[-33.949781,151.075736],[-33.947781,151.070584],[-33.947438,151.067822],[-33.952718,151.047398],[-33.951827,151.038595],[-33.952169,151.02562],[-33.9527,151.012027],[-33.954563,150.996242],[-33.95532,150.99339],[-33.956621,150.990785],[-33.963272,150.982698],[-33.964586,150.979663],[-33.965204,150.976645],[-33.965214,150.973684],[-33.963258,150.95796],[-33.965455,150.918245],[-33.964393,150.906107],[-33.965246,150.901814],[-33.968311,150.897642],[-33.987635,150.875568],[-34.010867,150.849857],[-34.015017,150.847324],[-34.045237,150.835645],[-34.048136,150.833719],[-34.068614,150.808206],[-34.070666,150.803784],[-34.071873,150.79703]],"shapeLen":55.6873,"stations":[{"name":"Central","lat":-33.884179,"lon":151.207215,"d":0},{"name":"Town Hall","lat":-33.873616,"lon":151.206772,"d":1.2441},{"name":"Wynyard","lat":-33.865881,"lon":151.205852,"d":2.1101},{"name":"Circular Quay","lat":-33.86126,"lon":151.210312,"d":2.9946},{"name":"St James","lat":-33.870683,"lon":151.211931,"d":4.4345},{"name":"Museum","lat":-33.876112,"lon":151.209951,"d":5.0719},{"name":"Central","lat":-33.884264,"lon":151.20736,"d":6.0126},{"name":"Green Square","lat":-33.906053,"lon":151.202532,"d":8.6344},{"name":"Mascot","lat":-33.923162,"lon":151.187227,"d":11.1034},{"name":"Domestic Airport","lat":-33.933605,"lon":151.180864,"d":12.6454},{"name":"International Airport","lat":-33.934982,"lon":151.165787,"d":14.1094},{"name":"Wolli Creek","lat":-33.928514,"lon":151.154285,"d":15.4016},{"name":"Turrella","lat":-33.929829,"lon":151.140167,"d":16.7347},{"name":"Bardwell Park","lat":-33.931481,"lon":151.125049,"d":18.1851},{"name":"Bexley North","lat":-33.937549,"lon":151.113646,"d":19.4511},{"name":"Kingsgrove","lat":-33.940558,"lon":151.100699,"d":20.7008},{"name":"Beverly Hills","lat":-33.949096,"lon":151.081065,"d":22.7622},{"name":"Narwee","lat":-33.947601,"lon":151.070441,"d":23.8102},{"name":"Riverwood","lat":-33.95151,"lon":151.052214,"d":25.561},{"name":"Padstow","lat":-33.951939,"lon":151.032318,"d":27.422},{"name":"Revesby","lat":-33.952559,"lon":151.015048,"d":29.0165},{"name":"Panania","lat":-33.954328,"lon":150.99809,"d":30.5937},{"name":"East Hills","lat":-33.961687,"lon":150.984852,"d":32.108},{"name":"Holsworthy","lat":-33.963164,"lon":150.956707,"d":34.8295},{"name":"Glenfield","lat":-33.972565,"lon":150.892888,"d":41.0773},{"name":"Macquarie Fields","lat":-33.984721,"lon":150.878905,"d":42.9454},{"name":"Ingleburn","lat":-33.997298,"lon":150.864709,"d":44.8607},{"name":"Minto","lat":-34.027354,"lon":150.842479,"d":48.8578},{"name":"Leumeah","lat":-34.050768,"lon":150.830568,"d":51.7238},{"name":"Campbelltown","lat":-34.063537,"lon":150.814349,"d":53.7848},{"name":"Macarthur","lat":-34.071957,"lon":150.797109,"d":55.6822}]},{"id":"L4","name":"L4 Westmead and Carlingford Line","color":"#BB2043","shape":[[-33.807592,150.987565],[-33.802302,150.992457],[-33.803038,150.993942],[-33.801555,150.997971],[-33.801671,151.000765],[-33.800359,151.00423],[-33.803494,151.005812],[-33.805838,151.005828],[-33.809582,151.005163],[-33.815048,151.003051],[-33.816995,151.011637],[-33.815979,151.012441],[-33.817444,151.016084],[-33.817682,151.017319],[-33.817062,151.018003],[-33.818826,151.024107],[-33.815492,151.025431],[-33.812069,151.027464],[-33.808897,151.030128],[-33.804541,151.032045],[-33.801945,151.038041],[-33.800303,151.039607],[-33.796385,151.03975],[-33.79297,151.042183],[-33.791615,151.044705],[-33.790633,151.045437],[-33.786397,151.044497],[-33.783772,151.045544],[-33.781977,151.047201]],"shapeLen":10.6955,"stations":[{"name":"Westmead","lat":-33.807605,"lon":150.987582,"d":0},{"name":"Westmead Hospital","lat":-33.80472,"lon":150.990114,"d":0.3967},{"name":"Childrens Hospital","lat":-33.80259,"lon":150.993005,"d":0.8017},{"name":"Ngara","lat":-33.801427,"lon":151.001359,"d":1.6284},{"name":"Benaud Oval","lat":-33.800811,"lon":151.004503,"d":1.9752},{"name":"Fennell Street","lat":-33.805173,"lon":151.005873,"d":2.4838},{"name":"Prince Alfred Square","lat":-33.809057,"lon":151.005288,"d":2.9192},{"name":"Church Street","lat":-33.812949,"lon":151.003645,"d":3.378},{"name":"Parramatta Square","lat":-33.815577,"lon":151.005128,"d":3.8175},{"name":"Robin Thomas","lat":-33.816939,"lon":151.011194,"d":4.398},{"name":"Tramway Avenue","lat":-33.817232,"lon":151.018494,"d":5.2081},{"name":"Rosehill Gardens","lat":-33.81811,"lon":151.024462,"d":5.842},{"name":"Yallamundi","lat":-33.809986,"lon":151.029295,"d":6.8576},{"name":"Dundas","lat":-33.803829,"lon":151.033226,"d":7.65},{"name":"Telopea","lat":-33.794362,"lon":151.041113,"d":9.0679},{"name":"Carlingford","lat":-33.781979,"lon":151.04722,"d":10.6955}]},{"id":"L3","name":"L3 Kingsford Line","color":"#781140","shape":[[-33.925161,151.229084],[-33.924211,151.227917],[-33.922467,151.226956],[-33.913712,151.225213],[-33.911449,151.223183],[-33.904664,151.224005],[-33.901628,151.222725],[-33.891349,151.221246],[-33.890258,151.2194],[-33.88957,151.214926],[-33.885815,151.207117],[-33.885069,151.206967],[-33.883098,151.208086],[-33.881101,151.204826],[-33.874497,151.206783],[-33.862559,151.207568],[-33.86135,151.208316],[-33.861528,151.210043]],"shapeLen":8.4916,"stations":[{"name":"Juniors Kingsford","lat":-33.925152,"lon":151.229097,"d":0},{"name":"Kingsford","lat":-33.921876,"lon":151.226903,"d":0.4297},{"name":"UNSW Anzac Parade","lat":-33.916659,"lon":151.225878,"d":1.0175},{"name":"Kensington","lat":-33.909375,"lon":151.223378,"d":1.8958},{"name":"ES Marks","lat":-33.905833,"lon":151.223938,"d":2.2928},{"name":"Moore Park","lat":-33.893662,"lon":151.221792,"d":3.6701},{"name":"Surry Hills","lat":-33.888073,"lon":151.211901,"d":4.8857},{"name":"Central Chalmers Street","lat":-33.884226,"lon":151.207671,"d":5.5903},{"name":"Haymarket","lat":-33.881431,"lon":151.205363,"d":6.0324},{"name":"Chinatown","lat":-33.878595,"lon":151.20558,"d":6.3814},{"name":"Town Hall","lat":-33.873872,"lon":151.206935,"d":6.9205},{"name":"QVB","lat":-33.871584,"lon":151.20692,"d":7.1745},{"name":"Wynyard","lat":-33.866682,"lon":151.207209,"d":7.7202},{"name":"Bridge Street","lat":-33.86415,"lon":151.207484,"d":8.0027},{"name":"Circular Quay","lat":-33.861576,"lon":151.210025,"d":8.4906}]},